mean,count,Lon,Lat,day,month,year,country,city,parameter,unit
5.59,10,4.675,8.484,4,7,2014,NG,Ilorin,pm25,µg/m³
17.866667,15,4.675,8.484,3,6,2014,NG,Ilorin,pm25,µg/m³
43.1125,8,107.61,-6.888,14,9,2014,ID,Bandung,pm25,µg/m³
6.5750003,24,-58.506,-34.56,3,4,2015,AR,Buenos Aires,pm25,µg/m³
26.47,10,107.61,-6.888,22,7,2014,ID,Bandung,pm25,µg/m³
8.758333,24,-58.506,-34.56,6,12,2014,AR,Buenos Aires,pm25,µg/m³
37.992855,14,107.61,-6.888,9,5,2014,ID,Bandung,pm25,µg/m³
9.685507,138,77.196785,28.62209,16,7,2015,IN,Delhi,so2,µg/m³
23.070833,24,116.333,40.01,27,1,2015,CN,Beijing,pm25,µg/m³
34.390682,279,-0.16119212,51.511074,27,8,2015,GB,London,no2,µg/m³
7.431818,176,-0.149632,51.527252,26,8,2015,GB,London,pm25,µg/m³
10.405,20,-58.506,-34.56,12,12,2014,AR,Buenos Aires,pm25,µg/m³
16.376596,47,116.40004,39.980637,24,8,2015,CN,Beijing,pm25,µg/m³
12.741667,24,34.81,31.907,3,4,2015,IL,Rehovot,pm25,µg/m³
30.764706,17,90.398,23.728,17,9,2015,BD,Dhaka,pm25,µg/m³
41.010002,2,5.6062946,52.43595,14,9,2015,NL,Biddinghuizen,o3,µg/m³
-999,1,4.58006,51.8694,14,9,2015,NL,Ridderkerk,o3,µg/m³
12.163333,1,5.14845,51.5184,14,9,2015,NL,Biest Houtakker,pm10,µg/m³
45.601852,108,77.20096,28.641497,2,8,2015,IN,Delhi,pm25,µg/m³
10.705,60,77.22821,28.626127,2,8,2015,IN,Delhi,so2,µg/m³
22.791666,24,116.333,40.01,20,3,2015,CN,Beijing,pm25,µg/m³
21.627693,65,77.2016,28.633295,1,9,2015,IN,Delhi,o3,µg/m³
13.52,1,4.9233,51.9745,21,9,2015,NL,Cabauw,no2,µg/m³
19.720238,168,106.90193,47.913624,24,9,2015,MN,Ulaanbaatar,o3,µg/m³
44.468,25,-70.72413,-34.154205,23,9,2015,CL,Rancagua,pm10,µg/m³
2783.077,13,-70.71392,-34.162315,23,9,2015,CL,Rancagua,co,µg/m³
38.208332,216,-0.15233599,51.512825,24,9,2015,GB,London,no2,µg/m³
5.921579,19,-71.42831,-32.75425,10,8,2017,CL,Puchuncaví,so2,µg/m³
9.535,4,-71.37303,-32.778988,10,8,2017,CL,Puchuncaví,pm25,µg/m³
9.190727,55,77.026306,28.450129,11,8,2017,IN,Gurgaon,so2,µg/m³
931.7742,124,80.94182,26.84438,11,8,2017,IN,Lucknow,co,µg/m³
668.3119,21,-70.65116,-33.422302,11,8,2017,CL,Independencia,co,µg/m³
3.4,5,-46.792076,-23.526722,10,8,2017,BR,Osasco,so2,µg/m³
0,5,-45.575806,-23.03235,10,8,2017,BR,Taubaté,so2,µg/m³
13,5,-45.575806,-23.03235,10,8,2017,BR,Taubaté,pm25,µg/m³
-999,22,4.22802,51.932,11,8,2017,NL,Maassluis,no2,µg/m³
20.839546,22,4.64232,52.3705,11,8,2017,NL,Haarlem,no2,µg/m³
19.702282,22,5.71475,50.8459,11,8,2017,NL,Maastricht,pm10,µg/m³
11.789474,19,-45.575806,-23.03235,11,8,2017,BR,Taubaté,no2,µg/m³
30.984375,64,37.55828,41.042057,11,8,2017,TR,Ordu,no2,µg/m³
3.1370454,44,-72.47125,-36.713882,11,8,2017,CL,Quillón,so2,µg/m³
0.2,15,-76.347,36.98789,10,8,2017,US,Virginia Beach-Norfolk-Newport News,co,ppm
53.833332,6,77.230034,28.616568,10,8,2017,IN,Delhi,pm25,µg/m³
3.262084,24,11.5593,60.883644,11,8,2017,NO,Elverum,pm25,µg/m³
0.006126449,8692,34.900734,32.37986,11,8,2017,IL,תחנות ניידות,no2,ppm
9.18E-04,9469,35.171307,31.793333,11,8,2017,IL,ירושלים,so2,ppm
24.26415,53,100.63359,13.626802,12,8,2017,TH,Samut Prakan,pm10,µg/m³
24.308262,24,5.85778,51.8414,15,10,2015,NL,Nijmegen,pm10,µg/m³
17.865555,24,5.88175,50.9023,16,10,2015,NL,Wijnandsrade,pm10,µg/m³
50.97391,23,20.955555,52.407578,16,10,2015,PL,Legionowo,pm25,µg/m³
10.99,4,-73.11869,-36.735996,10,8,2017,CL,Talcahuano,pm25,µg/m³
70.36364,22,-50.439316,-21.186842,12,8,2017,BR,Araçatuba,o3,µg/m³
10.982174,23,-70.18868,-22.085518,12,8,2017,CL,Tocopilla,no2,µg/m³
83.31944,72,32.775387,39.958748,12,8,2017,TR,Ankara,o3,µg/m³
112.645836,48,41.4237,39.95057,12,8,2017,TR,Erzurum,o3,µg/m³
20.328571,140,29.75302,40.7545,12,8,2017,TR,Kocaeli,so2,µg/m³
535.625,24,36.552105,40.318665,12,8,2017,TR,Tokat,co,µg/m³
0.35929552,3577,35.351063,32.62987,7,9,2017,IL,עמק יזרעאל,co,ppm
0.001822059,68,150.80898,-33.738503,12,8,2017,AU,Sydney North-west,no2,ppm
12.021667,24,5.57349,52.9169,17,10,2015,NL,Balk,no2,µg/m³
20.079514,24,4.22802,51.932,17,10,2015,NL,Maassluis,pm25,µg/m³
12.819166,24,4.51082,52.2966,17,10,2015,NL,De Zilk,pm25,µg/m³
-11.856667,24,5.05051,52.8037,17,10,2015,NL,Wieringerwerf,o3,µg/m³
-40.937084,24,4.51082,52.2966,17,10,2015,NL,De Zilk,so2,µg/m³
12.391304,23,19.688612,52.560833,17,10,2015,PL,Płock,o3,µg/m³
-26.923958,288,4.86392,52.37704,18,10,2015,NL,Amsterdam,no2,µg/m³
15.465,24,6.60537,52.0918,18,10,2015,NL,Eibergen,no2,µg/m³
15.8375,24,5.98685,50.9003,18,10,2015,NL,Heerlen,o3,µg/m³
19.389402,24,4.22802,51.932,18,10,2015,NL,Maassluis,pm25,µg/m³
12.124901,24,4.3263,51.9105,18,10,2015,NL,Vlaardingen,pm25,µg/m³
7.96,1,5.57349,52.9169,10,8,2017,NL,Balk,no2,µg/m³
-999,2,5.695275,50.849,10,8,2017,NL,Maastricht,o3,µg/m³
37.076,20,-72.59879,-38.764767,3,10,2015,CL,Padre las Casas,pm10,µg/m³
742.3457,81,,,10,9,2017,IN,Amritsar,co,µg/m³
6,44,,,10,9,2017,IN,Rajamahendravaram,pm25,µg/m³
0.012215159,9651,34.85881,31.171745,7,9,2017,IL,צפון הנגב,no2,ppm
0.03972413,5230,35.32235,31.153406,6,9,2017,IL,איזור יהודה,o3,ppm
7.96E-04,4032,34.944893,29.545174,28,9,2017,IL,אילת,so2,ppm
0.2652804,5742,35.182602,31.798098,28,9,2017,IL,ירושלים,co,ppm
7.3811,100,,,29,9,2017,IN,Visakhapatnam,so2,µg/m³
8.500392,102,,,29,9,2017,IN,Visakhapatnam,pm25,µg/m³
54.220203,49,76.85318,30.705778,29,9,2017,IN,Panchkula,o3,µg/m³
24.24206,199,77.59945,12.957983,29,9,2017,IN,Bengaluru,no2,µg/m³
6.3228,25,73.03791,26.292065,29,9,2017,IN,Jodhpur,so2,µg/m³
37.99296,27,73.03791,26.292065,29,9,2017,IN,Jodhpur,pm25,µg/m³
30.655073,69,21.028055,52.22364,19,10,2015,PL,Warszawa,pm25,µg/m³
40.450848,295,-0.1512997,51.50919,29,9,2015,GB,London,no2,µg/m³
9.325292,24,-70.953064,-33.67375,28,9,2015,CL,Talagante,so2,µg/m³
209.88333,24,-72.62079,-38.7487,29,9,2015,CL,Temuco,co,µg/m³
48.839584,48,18.636806,44.532223,28,8,2017,BA,Tuzla,o3,µg/m³
0.22388889,18,100.17033,19.190056,13,8,2017,TH,Phayao,co,ppm
24.44421,19,-73.228516,-39.831318,1,10,2015,CL,Valdivia,pm25,µg/m³
20.537683,95,-71.49133,-32.92615,4,10,2015,CL,Concón,so2,µg/m³
26.045,2,5.39333,51.4074,4,10,2015,NL,Veldhoven,no2,µg/m³
54.95,4,5.6062946,52.43595,4,10,2015,NL,Biddinghuizen,pm10,µg/m³
42.859093,2,4.35984,51.4344,4,10,2015,NL,Huijbergen,pm10,µg/m³
51.683334,2,5.70842,52.1116,4,10,2015,NL,Wekerom,pm10,µg/m³
-26.11375,24,4.45053,51.7866,5,10,2015,NL,Westmaas,o3,µg/m³
26.856522,46,19.696945,52.555885,5,10,2015,PL,Płock,no2,µg/m³
5.3210526,19,150.74583,-33.618332,20,8,2017,AU,Sydney North-west,pm25,µg/m³
0.009112394,5817,35.169838,32.899353,20,8,2017,IL,צפון,no2,ppm
17.651897,232,77.16439,28.691452,20,8,2017,IN,Delhi,no2,µg/m³
0.017924242,66,150.82852,-34.49185,10,9,2017,AU,Illawarra,o3,ppm
7.6712327,73,-70.964935,42.667492,19,8,2017,US,Boston-Cambridge-Quincy,pm25,µg/m³
899.13794,58,73.03791,26.292065,14,10,2017,IN,Jodhpur,co,µg/m³
7.2504764,42,88.3804,22.627874,14,10,2017,IN,Kolkata,o3,µg/m³
26.149666,24,-70.85298,-34.394543,24,9,2015,CL,Rengo,o3,µg/m³
1122.8965,20,-70.73215,-33.43309,28,8,2017,CL,Cerro Navia,co,µg/m³
0.002952381,21,100.1654,18.12614,28,8,2017,TH,Phrae,no2,ppm
15.515942,69,18.642778,44.53213,12,8,2017,BA,Tuzla,so2,µg/m³
6.0301976,44,4.48411,51.89235,12,8,2017,NL,Rotterdam Zuid,pm25,µg/m³
20.14395,92,5.3094444,60.397503,12,8,2017,NO,Bergen,no2,µg/m³
23.002777,18,-73.11872,-40.58448,11,8,2017,CL,Osorno,pm25,µg/m³
62.68421,19,1.122017,52.95049,11,8,2017,GB,Weybourne,o3,µg/m³
50.157894,19,-3.034178,52.50385,11,8,2017,GB,Aston Hill,o3,µg/m³
3.6153846,13,-1.438228,51.149616,11,8,2017,GB,Stockbridge,so2,µg/m³
4.1578946,19,-1.438228,51.149616,11,8,2017,GB,Stockbridge,pm25,µg/m³
0.048278302,212,-111.8939,33.476105,10,8,2017,US,Phoenix-Mesa-Scottsdale,o3,ppm
0.17777778,27,-104.980446,39.789898,10,8,2017,US,Denver-Aurora,co,ppm
0.030714286,112,-77.12432,38.845604,10,8,2017,US,Washington-Arlington-Alexandria,o3,ppm
0.00552,25,-90.07944,38.309864,10,8,2017,US,WASHINGTON,no2,ppm
0.041222222,9,-95.47594,37.67696,10,8,2017,US,NEOSHO,o3,ppm
0.22416666,12,-72.57335,42.1515,10,8,2017,US,Springfield,co,ppm
10.857142,7,-71.01269,42.06512,10,8,2017,US,PLYMOUTH,pm25,µg/m³
0.58750004,24,-83.32071,42.398094,10,8,2017,US,WAYNE,co,ppm
19.875,8,-71.38014,42.86253,10,8,2017,US,ROCKINGHAM,pm10,µg/m³
0.00575,8,-75.12529,39.934444,10,8,2017,US,Philadelphia-Camden-Wilmington,no2,ppm
9.625,8,-78.5742,35.8561,10,8,2017,US,Raleigh-Cary,pm10,µg/m³
0.032034885,86,-80.060234,40.492554,10,8,2017,US,Pittsburgh,o3,ppm
12.205882,51,-79.97236,40.448757,10,8,2017,US,Pittsburgh,pm25,µg/m³
14.0885105,47,,,10,9,2017,IN,Ludhiana,no2,µg/m³
-999,24,4.60184,52.463,10,9,2017,NL,IJmuiden,co,µg/m³
1.9815072,24,5.18155,52.2351,10,9,2017,NL,Hilversum,pm25,µg/m³
11.942064,48,5.122485,52.08635,10,9,2017,NL,Utrecht,pm10,µg/m³
44,20,-46.672707,-23.553543,10,9,2017,BR,Cerqueira César,no2,µg/m³
52.409092,44,34.955803,40.538994,10,9,2017,TR,Çorum,no2,µg/m³
9.816901,71,18.642347,44.53201,7,9,2017,BA,Tuzla,pm25,µg/m³
33.822582,62,-46.39182,-23.85293,7,9,2017,BR,Cubatão,no2,µg/m³
37.83,21,5.85694,51.8382,7,9,2017,NL,Nijmegen,o3,µg/m³
20.012192,21,5.18155,52.2351,7,9,2017,NL,Hilversum,pm10,µg/m³
43.409092,22,-121.4406,37.6825,6,9,2017,US,Stockton,pm10,µg/m³
60.217392,23,11.52769,58.99677,20,8,2017,NO,Prestebakke,o3,µg/m³
8.218087,202,10.756958,59.92154,20,8,2017,NO,Oslo,pm10,µg/m³
0.019,38,100.90215,14.603312,20,8,2017,TH,Saraburi,o3,ppm
0.003666667,9,101.28636,13.588554,20,8,2017,TH,Chachoengsao,o3,ppm
0.03694737,19,-111.739296,33.08,11,8,2017,US,PINAL,o3,ppm
1.057,10,-117.91876,33.819305,11,8,2017,US,ORANGE,co,ppm
0.0636,15,-121.82046,39.20556,11,8,2017,US,SUTTER,o3,ppm
0.02607143,14,-81.72,26.2992,11,8,2017,US,Naples-Marco Island,o3,ppm
0.016571429,14,-82.6192,30.1783,11,8,2017,US,Lake City,o3,ppm
6.4714284,14,-82.6192,30.1783,11,8,2017,US,Lake City,pm25,µg/m³
15.038889,72,-85.7361,38.164574,11,8,2017,US,Louisville,pm25,µg/m³
2.50E-04,16,-76.1408,38.5876,11,8,2017,US,DORCHESTER,so2,ppm
0.035058822,17,-86.1486,42.7678,11,8,2017,US,Allegan,o3,ppm
0.03725,16,-82.6431,43.8364,11,8,2017,US,HURON,o3,ppm
7.7777777,18,-93.27205,45.01361,11,8,2017,US,HENNEPIN,pm25,µg/m³
25.989473,19,-112.0131,46.6588,11,8,2017,US,Helena,pm25,µg/m³
0,18,-80.2267,36.1106,11,8,2017,US,Winston-Salem,so2,ppm
0.015058824,17,-99.51524,27.517403,11,8,2017,US,Laredo,o3,ppm
9.970588,17,-99.5333,27.5994,11,8,2017,US,Laredo,pm25,µg/m³
0.048873026,5687,35.325336,31.153316,8,9,2017,IL,איזור יהודה,o3,ppm
138.72327,318,77.20119,28.628279,8,9,2017,IN,Delhi,pm10,µg/m³
8.241277,141,80.23635,13.065673,8,9,2017,IN,Chennai,so2,µg/m³
0.005894737,19,101.82357,6.427698,8,9,2017,TH,Narathiwat,no2,ppm
5.659091,44,35.42145,40.683323,8,9,2017,TR,Amasya,so2,µg/m³
13.954545,22,39.497066,39.746445,8,9,2017,TR,Erzincan,so2,µg/m³
9.976191,42,27.74171,41.14781,8,9,2017,TR,Tekirdağ,so2,µg/m³
97.952774,36,88.3804,22.627874,12,8,2017,IN,Kolkata,pm10,µg/m³
4.7208333,24,5.57349,52.9169,20,10,2015,NL,Balk,no2,µg/m³
17.373333,39,82.97833,25.350555,7,9,2017,IN,Varanasi,o3,µg/m³
5.535,20,146.97417,-36.051666,28,8,2017,AU,South-west Slopes,pm25,µg/m³
0.022608696,69,150.80806,-33.73676,7,9,2017,AU,Sydney North-west,o3,ppm
0.00975,8,99.01115,18.564722,10,9,2017,TH,Lamphun,o3,ppm
96.7,20,-49.95997,-22.19981,7,9,2017,BR,Marília,o3,µg/m³
13.185217,23,-70.18868,-22.085518,7,9,2017,CL,Tocopilla,no2,µg/m³
1.9342105,76,35.31756,37.01169,28,8,2017,TR,Adana,so2,µg/m³
20.631578,19,30.05295,39.90395,28,8,2017,TR,Bilecik,no2,µg/m³
48.57895,19,27.612913,39.181416,28,8,2017,TR,Manisa,pm10,µg/m³
-999,46,5.816465,50.97375,20,8,2017,NL,Geleen,no2,µg/m³
-647.06744,23,6.1082,51.4541,20,8,2017,NL,Horst a/d Maas,pm25,µg/m³
15.787799,23,4.60199,52.494,20,8,2017,NL,Wijk aan Zee,pm10,µg/m³
19.89394,66,35.453487,38.729603,13,8,2017,TR,Kayseri,so2,µg/m³
4.5454545,44,32.499176,37.901783,13,8,2017,TR,Konya,so2,µg/m³
65.27778,18,-47.33955,-22.724253,8,9,2017,BR,Americana,o3,µg/m³
51.15,20,-45.575806,-23.03235,8,9,2017,BR,Taubaté,pm10,µg/m³
29.147333,60,-71.43391,-32.76376,8,9,2017,CL,Puchuncaví,pm10,µg/m³
0.001332099,81,151.1227,-33.863117,13,8,2017,AU,Sydney East,no2,ppm
0.022852274,176,152.99167,-27.488926,13,8,2017,AU,South East Queensland,o3,ppm
20.0692,50,75.90639,17.65992,13,8,2017,IN,Solapur,so2,µg/m³
21.083334,24,90.424614,23.796373,8,9,2017,BD,Dhaka,pm25,µg/m³
32.279457,24,-71.37303,-32.778988,30,9,2015,CL,Ventanas,o3,µg/m³
27.210526,19,104.07,30.63,1,10,2015,CN,Chengdu,pm25,µg/m³
0.45,1,99.82336,19.909243,4,1,2016,TH,Chiang Rai,co,ppm
-129.58333,6,4.77401,52.334,4,1,2016,NL,Badhoevedorp,no2,µg/m³
9.761806,6,4.8617,52.5636,4,1,2016,NL,De Rijp,pm10,µg/m³
80.28281,442,106.89235,47.912556,5,1,2016,MN,Ulaanbaatar,so2,µg/m³
6.6483493,46,5.72966,58.96294,20,8,2017,NO,Stavanger,pm10,µg/m³
308.39847,13,-70.52332,-33.376774,6,9,2017,CL,Las Condes,co,µg/m³
10.975,40,-70.94915,-32.777958,13,8,2017,CL,Catemu,so2,µg/m³
43.25,20,-48.983074,-21.141943,6,9,2017,BR,Catanduva,o3,µg/m³
27.05,20,-46.54623,-23.698671,6,9,2017,BR,São Bernardo do Campo,no2,µg/m³
0.38421053,19,-46.54623,-23.698671,6,9,2017,BR,São Bernardo do Campo,co,ppm
12.269178,73,77.658676,12.927467,13,8,2017,IN,Bengaluru,pm25,µg/m³
0.001,22,146.8341,-19.3463,31,8,2017,AU,Townsville,so2,ppm
84.318184,22,-70.72379,-33.34963,30,8,2017,CL,Quilicura,pm10,µg/m³
43.378887,45,-72.600845,-38.738094,28,8,2017,CL,Temuco,pm25,µg/m³
212.2205,40,-72.05638,-45.579575,28,8,2017,CL,Coyhaique,pm25,µg/m³
50.695652,23,-4.142361,50.37167,28,8,2017,GB,Plymouth,o3,µg/m³
4.2083335,24,-0.341222,53.74878,28,8,2017,GB,Hull,so2,µg/m³
18.272728,22,-121.6175,39.1389,27,8,2017,US,Yuba City,pm10,µg/m³
0.049044117,68,-105.263794,40.476234,27,8,2017,US,Fort Collins-Loveland,o3,ppm
4.2070794,113,-81.56418,30.337957,28,8,2017,US,Jacksonville,pm25,µg/m³
0.01552174,23,-70.12489,43.97445,28,8,2017,US,Lewiston-Auburn,o3,ppm
0.44,24,-93.285805,44.706123,28,8,2017,US,DAKOTA,co,ppm
0.021791667,48,-92.4592,47.615547,28,8,2017,US,Duluth,o3,ppm
8.33E-05,24,-71.458244,43.13246,28,8,2017,US,MERRIMACK,so2,ppm
0.025904762,21,-75.0252,39.42227,28,8,2017,US,Vineland-Millville-Bridgeton,o3,ppm
0.21652174,46,-84.44458,39.795036,28,8,2017,US,Dayton,co,ppm
9.180952,21,-76.512726,41.705227,28,8,2017,US,BRADFORD,pm25,µg/m³
8.958333,24,-82.5217,36.5408,28,8,2017,US,Kingsport-Bristol-Bristol,pm25,µg/m³
0.03026087,23,-78.31,37.17,28,8,2017,US,PRINCE EDWARD,o3,ppm
16.192593,135,-99.15649,19.385403,28,8,2017,MX,DISTRITO FEDERAL,pm25,µg/m³
0.67726743,172,-101.26637,20.703243,28,8,2017,MX,GUANAJUATO,co,ppm
0.35540453,5723,34.918568,31.888063,12,9,2017,IL,שפלה פנימית,co,ppm
-999,23,4.40139,51.9214,12,9,2017,NL,Schiedam,no2,µg/m³
14,1,-3.002778,53.04222,10,8,2017,GB,Wrexham,no2,µg/m³
7,1,-2.678731,51.638096,10,8,2017,GB,Chepstow,pm25,µg/m³
0.04975,4,-113.9956,48.5103,10,8,2017,US,Kalispell,o3,ppm
8.822222,45,-4.2409825,55.863415,8,9,2017,GB,Glasgow,pm10,µg/m³
3.7727273,44,-1.455945,53.237926,8,9,2017,GB,Chesterfield,pm25,µg/m³
6.5652175,23,-1.127311,52.619823,8,9,2017,GB,Leicester,pm25,µg/m³
48.347828,23,-1.438228,51.149616,8,9,2017,GB,Stockbridge,o3,µg/m³
8.178412,63,-68.93277,-22.455084,27,8,2017,CL,Calama,pm25,µg/m³
75.27273,11,-49.09276,-22.326609,30,8,2017,BR,Bauru,o3,µg/m³
1.1947368,19,-46.40995,-23.440117,30,8,2017,BR,Guarulhos,co,ppm
32.923077,65,-2.0983782,57.14508,7,9,2017,GB,Aberdeen,no2,µg/m³
10.333333,21,-1.260278,51.744804,7,9,2017,GB,Oxford,pm25,µg/m³
0.00125,20,-85.32595,34.243645,7,9,2017,US,Rome,so2,ppm
0.2631579,19,-74.21481,40.662388,7,9,2017,US,UNION,co,ppm
0.02055,40,-80.973274,37.019917,7,9,2017,US,Wilmington,o3,ppm
6.295238,21,-80.61569,40.36645,7,9,2017,US,Weirton-Steubenville,pm25,µg/m³
0.00575,4,-98.9353,36.1589,7,9,2017,US,DEWEY,o3,ppm
8.9,4,-98.9353,36.1589,7,9,2017,US,DEWEY,pm25,µg/m³
0.05395238,21,-110.77,39.5958,6,9,2017,US,CARBON,o3,ppm
248.06667,15,-119.0084,46.2001,6,9,2017,US,Walla Walla,pm10,µg/m³
19.85,20,-119.6436,36.3144,7,9,2017,US,Hanford-Corcoran,pm25,µg/m³
19.89889,24,4.50756,52.1678,21,10,2015,NL,Leiden,pm10,µg/m³
10.586917,12,-73.11869,-36.735996,20,10,2015,CL,Talcahuano,pm25,µg/m³
23.4175,4,-71.43451,-33.047466,20,10,2015,CL,Quilpué,pm10,µg/m³
22.11375,24,-71.65583,-35.42086,20,10,2015,CL,Talca,pm10,µg/m³
21.216087,23,-70.52332,-33.376774,20,8,2017,CL,Las Condes,o3,µg/m³
19.750622,21,10.6967,60.79089,31,8,2017,NO,Gjøvik,no2,µg/m³
1336.0454,22,30.4099,40.7693,31,8,2017,TR,Sakarya,co,µg/m³
-40.470833,24,13.570481,41.223076,27,8,2017,IT,Latina,so2,µg/m³
1,2,12.261163,42.36193,11,8,2017,IT,Viterbo,so2,µg/m³
10.85,20,-3.17625,51.48178,12,8,2017,GB,Cardiff,pm10,µg/m³
4.05,20,-4.142361,50.37167,12,8,2017,GB,Plymouth,pm25,µg/m³
-1.882353,17,-72.0789,41.3536,12,8,2017,US,Norwich-New London,pm25,µg/m³
0.019526316,19,-79.4667,36.3028,12,8,2017,US,CASWELL,o3,ppm
0.28538463,26,-122.6687,45.45165,11,8,2017,US,Portland-Vancouver-Beaverton,co,ppm
0.002333334,12,-107.12083,41.78237,11,8,2017,US,CARBON,so2,ppm
31.695652,23,-1.546472,53.80378,31,8,2017,GB,Leeds,o3,µg/m³
26.680729,24,4.22802,51.932,14,10,2015,NL,Maassluis,pm10,µg/m³
1.6430953,42,-68.789474,-22.402205,27,8,2017,CL,Calama,so2,µg/m³
2.9818518,47,-70.19714,-22.089977,12,10,2015,CL,Tocopilla,so2,µg/m³
-266.4797,24,4.38881,51.8879,13,10,2015,NL,Pernis,pm10,µg/m³
23.466629,24,4.28919,52.0771,13,10,2015,NL,Den Haag,pm25,µg/m³
35.499275,48,5.45859,51.45645,13,10,2015,NL,Eindhoven,pm10,µg/m³
1.3020834,24,3.74948,51.2945,13,10,2015,NL,Philippine,so2,µg/m³
11.681818,22,-70.52332,-33.376774,12,10,2015,CL,Las Condes,pm25,µg/m³
15.620909,33,-71.297874,-29.951132,6,9,2017,CL,Coquimbo,pm25,µg/m³
0.008842914,10677,34.811207,32.077396,5,9,2017,IL,גוש דן,no2,ppm
0.37465784,5290,34.915737,31.90475,5,9,2017,IL,שפלה פנימית,co,ppm
118.557434,296,77.20706,28.629028,6,9,2017,IN,Delhi,pm10,µg/m³
11.333333,45,-1.1671778,52.96189,10,9,2017,GB,Nottingham,pm10,µg/m³
3.5217392,23,-3.17625,51.48178,10,9,2017,GB,Cardiff,pm25,µg/m³
0.30058825,17,-119.77321,36.785378,9,9,2017,US,FRESNO,co,ppm
6.586364,22,-83.6694,43.0289,9,9,2017,US,Flint,pm25,µg/m³
0.18630435,46,-115.11842,36.177612,9,9,2017,US,Las Vegas-Paradise,co,ppm
26.454546,22,-94.72502,36.80467,9,9,2017,US,OTTAWA,pm10,µg/m³
32.31818,44,-106.394424,31.717789,9,9,2017,US,El Paso,pm10,µg/m³
72.75,20,17.913,44.199,6,9,2017,BA,Zenica,so2,µg/m³
19.353333,15,-72.47721,-36.743904,6,9,2017,CL,Quillón,o3,µg/m³
6.1190476,42,29.146221,40.614967,6,9,2017,TR,Yalova,so2,µg/m³
117.6,45,82.97833,25.350555,14,10,2017,IN,Varanasi,pm25,µg/m³
7.2708335,192,32.821465,39.938927,14,10,2017,TR,Ankara,so2,µg/m³
76.021736,46,29.290365,40.13327,14,10,2017,TR,Bursa,pm10,µg/m³
2.875,24,38.398563,40.914444,14,10,2017,TR,Giresun,so2,µg/m³
20.45,20,-48.56746,-22.29862,11,9,2017,BR,Jaú,no2,µg/m³
11.590284,44,10.4653,61.116875,12,9,2017,NO,Lillehammer,no2,µg/m³
136.38095,21,28.356836,37.213722,12,9,2017,TR,Muğla,pm10,µg/m³
5.590909,22,-114.61444,32.690277,10,9,2017,US,Yuma,pm25,µg/m³
9.381818,22,-104.7061,40.4147,10,9,2017,US,Greeley,pm25,µg/m³
0.023409091,22,-85.3803,40.9606,10,9,2017,US,Huntington,o3,ppm
0.032434784,23,-95.7114,39.0242,10,9,2017,US,Topeka,o3,ppm
4.8565216,23,-84.8919,44.3106,10,9,2017,US,Cadillac,pm25,µg/m³
5.308696,23,-80.2633,35.8142,10,9,2017,US,Thomasville-Lexington,pm25,µg/m³
0.17623189,69,-81.50796,41.537487,10,9,2017,US,Cleveland-Elyria-Mentor,co,ppm
4.7586956,46,-73.039635,44.502243,10,9,2017,US,Burlington-South Burlington,pm25,µg/m³
11.541667,48,-72.654816,41.77807,27,8,2017,US,Hartford-West Hartford-East Hartford,pm25,µg/m³
7.1458335,48,-91.68773,41.976734,27,8,2017,US,Cedar Rapids,pm25,µg/m³
0.031166667,24,-75.7972,39.3052,27,8,2017,US,KENT,o3,ppm
6.9,24,-78.8094,42.8781,27,8,2017,US,Buffalo-Niagara Falls,pm25,µg/m³
0.002041667,24,-81.4949,41.4409,27,8,2017,US,Cleveland-Elyria-Mentor,no2,ppm
29.542484,153,-99.16163,19.375778,27,8,2017,MX,DISTRITO FEDERAL,pm10,µg/m³
9.833333,18,-81.31,28.7456,6,9,2017,US,Orlando-Kissimmee,pm10,µg/m³
9,20,-83.5447,32.8031,6,9,2017,US,Macon,pm25,µg/m³
0.25775,40,-85.68325,38.211052,6,9,2017,US,Louisville,co,ppm
0.017842105,19,-70.8547,44.377792,6,9,2017,US,OXFORD,o3,ppm
0.0365,20,-70.7859,41.3306,6,9,2017,US,DUKES,o3,ppm
25.944445,18,-94.31702,37.19822,6,9,2017,US,Joplin,pm10,µg/m³
6.415,20,-82.5833,35.6075,6,9,2017,US,Asheville,pm25,µg/m³
159.68333,6,-121.5555,44.2921,6,9,2017,US,DESCHUTES,pm25,µg/m³
0.032102566,39,-77.30795,39.923203,6,9,2017,US,Gettysburg,o3,ppm
11.915,20,-77.3081,39.9233,6,9,2017,US,Gettysburg,pm25,µg/m³
43.238094,21,-96.8073,44.348602,6,9,2017,US,BROOKINGS,pm10,µg/m³
97.42857,21,-113.893,45.1787,7,9,2017,US,LEMHI,pm25,µg/m³
0.132,10,100.13193,15.707849,9,9,2017,TH,Nakhon Sawan,co,ppm
6.922143,42,10.4653,61.116875,13,8,2017,NO,Lillehammer,pm10,µg/m³
21.142857,21,-70.58813,-33.516632,19,8,2017,CL,La Florida,pm25,µg/m³
0.021619048,21,-85.8247,41.7178,9,9,2017,US,Elkhart-Goshen,o3,ppm
6.5119047,42,-86.17279,39.788414,9,9,2017,US,Indianapolis,pm25,µg/m³
19.675869,46,-72.600395,-38.737854,23,9,2017,CL,Temuco,pm25,µg/m³
48.52174,23,-0.772222,52.554443,23,9,2017,GB,Market Harborough,o3,µg/m³
4.8636365,22,-7.900328,54.43951,23,9,2017,GB,Lough Navar,pm10,µg/m³
10,22,0.634889,51.45617,23,9,2017,GB,Rochester,pm10,µg/m³
54.68182,22,-4.142361,50.37167,23,9,2017,GB,Plymouth,o3,µg/m³
3.4545455,22,-4.227678,50.411465,23,9,2017,GB,Saltash,pm25,µg/m³
25.52381,42,-1.4390689,53.39384,23,9,2017,GB,Sheffield,no2,µg/m³
0.04282979,94,-121.615234,36.998337,10,9,2017,US,San Jose-Sunnyvale-Santa Clara,o3,ppm
0.022695651,23,-115.07873,36.141895,10,9,2017,US,CLARK,o3,ppm
0,21,-74.21481,40.662388,10,9,2017,US,UNION,so2,ppm
22.14,22,-70.989685,-34.57976,27,8,2017,CL,San Fernando,o3,µg/m³
0.002666667,21,,,13,8,2017,TH,Prachin Buri,so2,ppm
0.6857143,21,-46.672707,-23.553543,21,9,2017,BR,Cerqueira César,co,ppm
66.84028,144,-46.706276,-23.599028,21,9,2017,BR,São Paulo,no2,µg/m³
0.032885466,7987,34.804436,32.071217,20,9,2017,IL,גוש דן,o3,ppm
26.44625,16,85.4115,26.0762,21,9,2017,IN,Muzaffarpur,no2,µg/m³
0.001,17,,,21,9,2017,TH,Satun,so2,ppm
32.625,104,27.139463,38.411194,21,9,2017,TR,İzmir,pm10,µg/m³
22.05,20,-2.293772,53.55903,17,8,2017,GB,Bury,no2,µg/m³
39.35,20,-1.068583,50.82881,17,8,2017,GB,Portsmouth,o3,µg/m³
34.57143,21,-3.770822,51.58395,17,8,2017,GB,Port Talbot,pm10,µg/m³
5,14,-1.478096,53.37862,17,8,2017,GB,Sheffield,pm25,µg/m³
0.010357143,42,-118.1346,33.934975,16,8,2017,US,LOS ANGELES,no2,ppm
6.6309524,84,-104.9968,39.719505,16,8,2017,US,Denver-Aurora,pm25,µg/m³
7.2380953,21,-116.55656,48.29182,16,8,2017,US,BONNER,pm25,µg/m³
0.029282052,117,-82.852325,40.21308,16,8,2017,US,Springfield,o3,ppm
0.035935484,62,-86.19879,41.71175,16,8,2017,US,South Bend-Mishawaka,o3,ppm
0.017567568,37,-93.80089,32.603893,16,8,2017,US,Shreveport-Bossier City,o3,ppm
6.705,20,-93.7492,32.5364,16,8,2017,US,Shreveport-Bossier City,pm25,µg/m³
0.027461538,39,-83.26853,42.386406,16,8,2017,US,WAYNE,o3,ppm
0.02305,20,-81.191,35.9139,16,8,2017,US,ALEXANDER,o3,ppm
0.021947369,38,-76.76855,40.258934,16,8,2017,US,Harrisburg-Carlisle,o3,ppm
5.7,20,-88.62111,43.46611,16,8,2017,US,DODGE,pm25,µg/m³
0.6025,72,-58.39638,-34.612022,9,9,2017,AR,Buenos Aires,co,ppm
21.575424,20,7.5820775,47.565914,14,10,2017,CH,Basel-Stadt,pm10,µg/m³
6.4510727,20,20.153053,46.266613,14,10,2017,HU,Csongrád,so2,µg/m³
35.545395,80,19.111536,47.493195,14,10,2017,HU,Budapest,no2,µg/m³
-11.936171,47,85.32574,27.725304,14,10,2017,NP,Kathmandu,pm25,µg/m³
-9999,21,151.2517,-23.8443,12,9,2017,AU,Gladstone,o3,ppm
57.54348,23,-70.58813,-33.516632,11,9,2017,CL,La Florida,pm10,µg/m³
7.857143,21,150.91417,-31.110556,2,11,2017,AU,North-west Slopes,pm25,µg/m³
0.001,22,146.8341,-19.3463,2,11,2017,AU,Townsville,so2,ppm
0.26955628,7820,34.678566,31.70844,1,11,2017,IL,מישור החוף הדרומי,co,ppm
47.984127,63,,,2,11,2017,IN,Tirupati,pm25,µg/m³
989.8148,54,84.94384,24.74897,2,11,2017,IN,Gaya,co,µg/m³
1031.7646,68,,,2,11,2017,IN,Ludhiana,co,µg/m³
367.63846,52,,,2,11,2017,IN,Bhiwadi,pm10,µg/m³
57.03972,142,80.94379,26.844885,2,11,2017,IN,Lucknow,no2,µg/m³
0.002545455,22,99.81487,13.532555,2,11,2017,TH,Ratchaburi,so2,ppm
25.209425,191,-0.06260703,51.51393,29,9,2017,GB,London,o3,µg/m³
67.86,17,,,29,9,2017,IN,Howrah,pm10,µg/m³
-953.65454,66,4.89928,52.379665,29,9,2017,NL,Amsterdam,o3,µg/m³
30.318182,22,15.262438,46.234474,29,9,2017,SI,Celje,pm10,µg/m³
29.626667,24,-72.95853,-36.601715,8,9,2017,CL,Tomé,o3,µg/m³
56.045456,22,-3.196527,55.65747,27,9,2017,GB,Peebles,o3,µg/m³
31.136364,44,-1.5614164,53.811874,27,9,2017,GB,Leeds,pm25,µg/m³
0.03996496,10020,34.971523,32.463707,26,9,2017,IL,שרון,o3,ppm
0.025922079,77,-122.1223,37.79723,27,9,2017,US,San Francisco-Oakland-Fremont,o3,ppm
4.133333,6,-85.5419,42.2781,27,9,2017,US,Kalamazoo-Portage,pm25,µg/m³
0.022916667,12,-85.5439,43.0807,27,9,2017,US,Grand Rapids-Wyoming,o3,ppm
0.006352942,17,-83.31457,42.39672,27,9,2017,US,WAYNE,no2,ppm
0.027,11,-85.50565,43.647247,27,9,2017,US,Rochester,o3,ppm
0,5,-88.5339,30.3775,27,9,2017,US,Pascagoula,so2,ppm
0.16,5,-71.38014,42.86253,27,9,2017,US,ROCKINGHAM,co,ppm
4.1833334,12,-95.98985,36.079597,27,9,2017,US,Tulsa,pm25,µg/m³
5.93,10,-116.478355,42.659954,27,9,2017,US,JACKSON,pm25,µg/m³
3.4166665,6,-101.9083,35.2006,27,9,2017,US,Amarillo,pm25,µg/m³
0.002,9,-76.35841,37.020973,27,9,2017,US,Virginia Beach-Norfolk-Newport News,no2,ppm
24.27619,21,150.67361,-32.195,14,10,2017,AU,Central Coast,pm10,µg/m³
21.35,20,-70.73215,-33.43309,13,10,2017,CL,Cerro Navia,pm25,µg/m³
1083.1034,116,,,14,10,2017,IN,Visakhapatnam,co,µg/m³
0.19846153,13,118.312256,24.432133,14,10,2017,TW,金門縣,co,ppm
0.001178572,14,121.59977,23.971306,14,10,2017,TW,花蓮縣,so2,ppm
0.42714286,14,120.440834,23.462778,14,10,2017,TW,嘉義市,co,ppm
7.186232,138,80.94359,26.844774,29,8,2017,IN,Lucknow,so2,µg/m³
12.631579,19,-46.30051,-23.981295,16,8,2017,BR,Santos,so2,µg/m³
11.761905,21,-49.398277,-20.784689,16,8,2017,BR,São José Do Rio Preto,pm25,µg/m³
140.12086,23,-72.361465,-37.471184,16,8,2017,CL,Los Angeles,pm10,µg/m³
23.993542,23,4.60199,52.494,17,8,2017,NL,Wijk aan Zee,pm10,µg/m³
38.486378,69,-71.43391,-32.76376,5,9,2017,CL,Puchuncaví,pm10,µg/m³
330.79565,23,-71.45449,-32.764137,5,9,2017,CL,Puchuncaví,co,µg/m³
7.96E-04,9241,35.176132,31.793745,4,9,2017,IL,ירושלים,so2,ppm
0.008238403,10205,35.042744,32.801216,4,9,2017,IL,חיפה וקריות,no2,ppm
26.227272,22,99.32072,9.136808,5,9,2017,TH,Surat Thani,pm10,µg/m³
11.552222,24,4.9233,51.9745,14,10,2017,NL,Cabauw,pm10,µg/m³
7.2912283,57,150.82852,-34.49185,11,11,2017,AU,Illawarra,pm10,µg/m³
8.81E-04,8488,34.861217,31.158207,10,11,2017,IL,צפון הנגב,so2,ppm
62.904064,91,79.3,19.95,11,11,2017,IN,Chandrapur,pm25,µg/m³
12.916364,22,5.88175,50.9023,11,11,2017,NL,Wijnandsrade,no2,µg/m³
6.2448783,66,4.4573164,51.9266,11,11,2017,NL,Rotterdam,pm25,µg/m³
15.325138,22,4.83206,52.4202,11,11,2017,NL,Zaanstad,pm10,µg/m³
45.445454,22,151.14972,-32.52972,15,8,2017,AU,Upper Hunter - Singleton,pm10,µg/m³
7.64E-04,4727,34.944565,29.544369,14,8,2017,IL,אילת,so2,ppm
2.579,20,-70.66621,-33.5471,11,9,2017,CL,El Bosque,so2,µg/m³
6.2909093,22,151.66917,-32.89611,29,9,2017,AU,Lower Hunter,pm25,µg/m³
5.322727,22,150.67361,-32.195,29,9,2017,AU,Central Coast,pm25,µg/m³
36.31818,22,-70.59479,-33.591393,29,9,2017,CL,Puente Alto,pm25,µg/m³
6.920833,84,,,21,9,2017,IN,Visakhapatnam,o3,µg/m³
1008.7931,58,72.92517,19.090061,21,9,2017,IN,Mumbai,co,µg/m³
25.86111,27,,,21,9,2017,IN,Nashik,no2,µg/m³
1129.8608,23,-72.049965,-45.579044,11,10,2015,CL,Coyhaique,co,µg/m³
18.021042,24,-72.09304,-36.61617,11,10,2015,CL,Chillán,pm25,µg/m³
16.272728,22,-70.10019,-20.290466,14,10,2017,CL,Alto Hospicio,pm25,µg/m³
52.770832,24,-70.59479,-33.591393,14,10,2017,CL,Puente Alto,pm10,µg/m³
62.041668,24,-70.72379,-33.34963,14,10,2017,CL,Quilicura,pm10,µg/m³
27.047787,122,77.62793,12.9330635,14,8,2017,IN,Bengaluru,pm25,µg/m³
5.6491227,57,26.968998,40.276146,14,8,2017,TR,Çanakkale,so2,µg/m³
0.008421052,19,-93.285805,44.706123,12,8,2017,US,DAKOTA,no2,ppm
5.5578947,19,-97.0706,31.6531,12,8,2017,US,Waco,pm25,µg/m³
-129.49203,168,4.8387384,52.38706,10,10,2015,NL,Amsterdam,pm25,µg/m³
12.74875,24,-73.11371,-36.769802,9,10,2015,CL,Talcahuano,o3,µg/m³
24.77087,23,-73.228516,-39.831318,9,10,2015,CL,Valdivia,pm10,µg/m³
33.701736,24,4.31806,51.8701,11,10,2015,NL,Botlek,pm25,µg/m³
36.091305,23,20.455555,52.28586,11,10,2015,PL,Granica,o3,µg/m³
16.603388,15,4.77401,52.334,29,12,2015,NL,Badhoevedorp,pm25,µg/m³
23.662,15,5.18155,52.2351,29,12,2015,NL,Hilversum,pm10,µg/m³
15.191603,102,-73.143555,-37.03618,28,12,2015,CL,Coronel,so2,µg/m³
0.02155,20,100.92917,14.523537,29,12,2015,TH,Saraburi,no2,ppm
0.012315789,19,99.81487,13.532555,29,12,2015,TH,Ratchaburi,no2,ppm
9.177,7,-70.66621,-33.5471,29,12,2015,CL,El Bosque,o3,µg/m³
29.468573,14,-70.58813,-33.516632,21,9,2017,CL,La Florida,o3,µg/m³
14.428572,21,-45.968235,-23.294199,14,8,2017,BR,Jacareí,no2,µg/m³
0,21,99.32072,9.136808,15,8,2017,TH,Surat Thani,so2,ppm
14.200151,66,-8.619377,42.928722,21,9,2017,ES,A Coruña,no2,µg/m³
36.494286,14,4.9233,51.9745,21,9,2017,NL,Cabauw,o3,µg/m³
9.272727,88,-72.73623,46.300266,30,8,2017,CA,QUEBEC,pm25,µg/m³
23.842106,38,-118.95562,37.891182,30,8,2017,US,MONO,pm10,µg/m³
0.06485,20,-121.0556,39.2344,30,8,2017,US,Truckee-Grass Valley,o3,ppm
17.85,20,-72.679924,41.771442,30,8,2017,US,Hartford-West Hartford-East Hartford,pm10,µg/m³
4.55E-05,22,-73.3033,41.8331,30,8,2017,US,Torrington,so2,ppm
0,22,-75.611,39.595,30,8,2017,US,NEW CASTLE,so2,ppm
0.0392375,240,-115.09972,36.227028,30,8,2017,US,Las Vegas-Paradise,o3,ppm
5.390909,22,-75.225,43.0994,30,8,2017,US,Utica-Rome,pm25,µg/m³
0.002095238,21,-80.61569,40.36645,30,8,2017,US,Weirton-Steubenville,so2,ppm
0.030052632,19,-94.6697,35.7506,30,8,2017,US,ADAIR,o3,ppm
0.028779069,86,-71.424034,41.657616,30,8,2017,US,Providence-New Bedford-Fall River,o3,ppm
0.02690909,22,-111.85194,41.842777,30,8,2017,US,CACHE,o3,ppm
20.271084,166,-99.112274,19.56737,30,8,2017,MX,MEXICO STATE,pm10,µg/m³
53.954544,22,-48.983074,-21.141943,14,8,2017,BR,Catanduva,pm10,µg/m³
25,22,-47.8708,-23.360752,14,8,2017,BR,Tatuí,pm10,µg/m³
-999,23,4.81671,52.448,15,8,2017,NL,Zaandam,no2,µg/m³
18.338406,23,5.59338,52.4232,15,8,2017,NL,Biddinghuizen,pm10,µg/m³
20.151218,23,5.70842,52.1116,15,8,2017,NL,Wekerom,pm10,µg/m³
16.333334,3,12.132968,42.486835,26,8,2017,IT,Viterbo,pm10,µg/m³
67.40909,22,-46.792076,-23.526722,4,9,2017,BR,Osasco,no2,µg/m³
0.35,22,-45.575806,-23.03235,4,9,2017,BR,Taubaté,co,ppm
14.601053,38,-72.47125,-36.713882,4,9,2017,CL,Quillón,so2,µg/m³
6.084651,172,80.23675,13.066677,5,9,2017,IN,Chennai,so2,µg/m³
-86.93513,230,153.00714,-27.48579,14,8,2017,AU,South East Queensland,no2,ppm
0,23,151.3507,-23.9408,14,8,2017,AU,Gladstone,co,ppm
43.42857,21,-46.584667,-23.671354,13,8,2017,BR,São Bernardo do Campo,pm10,µg/m³
17.410925,54,79.3,19.95,9,11,2017,IN,Chandrapur,no2,µg/m³
13.305736,68,77.026306,28.450129,5,9,2017,IN,Gurgaon,o3,µg/m³
46.18182,22,-121.4406,37.6825,5,9,2017,US,Stockton,pm10,µg/m³
0.017466666,30,150.82852,-34.49185,21,9,2017,AU,Illawarra,o3,ppm
1.75,28,-2.1075397,43.169563,21,9,2017,ES,Gipuzkoa,so2,µg/m³
13.917356,121,-0.5389738,38.407803,21,9,2017,ES,Alicante/Alacant,no2,µg/m³
22.904762,21,-2.472056,53.46008,2,11,2017,GB,Glazebury,no2,µg/m³
22.470589,17,-3.770822,51.58395,2,11,2017,GB,Port Talbot,o3,µg/m³
38.615932,59,-71.44406,-32.754288,5,10,2017,CL,Puchuncaví,so2,µg/m³
41.27216,176,78.46695,17.398764,5,10,2017,IN,Hyderabad,o3,µg/m³
30.345833,24,4.77077,52.28,6,10,2015,NL,Oude Meer,no2,µg/m³
23.740833,24,5.2359,52.2574,6,10,2015,NL,Laren,no2,µg/m³
12.344211,19,-70.29055,-18.483427,5,10,2015,CL,Arica,pm25,µg/m³
34.393333,24,-70.65116,-33.422302,6,10,2015,CL,Independencia,no2,µg/m³
36.7375,24,3.91662,51.6347,7,10,2015,NL,Zierikzee,o3,µg/m³
-13.105417,24,5.47235,51.4687,7,10,2015,NL,Eindhoven,o3,µg/m³
-18.172083,24,4.9233,51.9745,7,10,2015,NL,Cabauw,o3,µg/m³
-156.84993,216,4.84139,52.380413,7,10,2015,NL,Amsterdam,pm10,µg/m³
28.305555,18,151.14972,-32.52972,27,9,2017,AU,Upper Hunter - Singleton,pm10,µg/m³
71.04762,21,-70.66621,-33.5471,26,9,2017,CL,El Bosque,pm10,µg/m³
45.150246,81,-71.49643,-32.79191,13,8,2017,CL,Quintero,so2,µg/m³
24.6,10,4.7149134,51.27373,25,9,2017,BE,Antwerpen,o3,µg/m³
72.16866,45,-68.93519,-22.451748,25,9,2017,CL,Calama,pm10,µg/m³
43.915943,138,14.219826,49.111927,25,9,2017,CZ,Jihočeský,o3,µg/m³
-23.854782,23,4.78102,51.6031,25,9,2017,NL,Breda,o3,µg/m³
22.280436,23,4.3263,51.9105,25,9,2017,NL,Vlaardingen,pm10,µg/m³
-998,23,3.74948,51.2945,25,9,2017,NL,Philippine,so2,µg/m³
4.9347825,23,-73.03613,-36.92333,27,10,2017,CL,Chiguayante,pm25,µg/m³
0.009709979,11564,35.045273,32.80194,28,10,2017,IL,חיפה וקריות,no2,ppm
0.03143341,4367,35.1836,32.901184,28,10,2017,IL,צפון,o3,ppm
1.8867955,22,7.583281,47.54112,27,9,2017,CH,Basel-Landschaft,so2,µg/m³
26.115646,88,17.175772,47.68132,27,9,2017,HU,Gyor-Moson-Sopron,no2,µg/m³
8.82E-04,17,99.32072,9.136808,27,9,2017,TH,Surat Thani,so2,ppm
65.333336,21,41.49073,41.466797,27,9,2017,TR,Artvin,o3,µg/m³
26.904762,21,34.9673,40.546555,27,9,2017,TR,Çorum,o3,µg/m³
41.190475,42,32.499176,37.901783,27,9,2017,TR,Konya,pm10,µg/m³
40.190475,42,34.884865,41.7035,27,9,2017,TR,Sinop,pm10,µg/m³
20.294872,78,120.33428,23.73512,27,9,2017,TW,雲林縣,pm25,µg/m³
0.02677,40,120.29644,23.510073,27,9,2017,TW,嘉義縣,o3,ppm
6.5533333,21,-70.59479,-33.591393,29,9,2017,CL,Puente Alto,so2,µg/m³
0.04557895,38,-117.70134,41.611107,12,8,2017,US,BUTTE,o3,ppm
0.16444445,45,150.83519,-34.497784,26,10,2017,AU,Illawarra,co,ppm
11.572464,69,151.69583,-32.87565,26,10,2017,AU,Lower Hunter,pm10,µg/m³
49.708332,24,50.57083,26.204697,26,10,2017,BH,Manama,pm25,µg/m³
5.9166665,24,0.271611,50.80578,26,10,2017,GB,Eastbourne,pm25,µg/m³
87.78461,102,,,26,10,2017,IN,Visakhapatnam,pm10,µg/m³
22.283415,41,82.97833,25.350555,26,10,2017,IN,Varanasi,so2,µg/m³
0.017666666,15,100.29,7.0100007,14,8,2017,TH,Songkhla,o3,ppm
1640.5883,34,73.81349,18.497484,25,9,2017,IN,Pune,co,µg/m³
34.827274,22,-71.48337,-32.80098,27,9,2017,CL,Quintero,pm10,µg/m³
10.380953,42,23.705761,61.503635,27,9,2017,FI,Pirkanmaa,pm10,µg/m³
20.288261,46,1.1813431,49.163105,27,9,2017,FR,Eure,pm10,µg/m³
25.631813,22,22.00723,41.44056,27,9,2017,MK,Kavadarci Municipality,pm10,µg/m³
-999,21,4.81671,52.448,27,9,2017,NL,Zaandam,no2,µg/m³
28.246376,21,4.58006,51.8694,27,9,2017,NL,Ridderkerk,pm10,µg/m³
625.7432,326,28.966267,41.06028,29,9,2017,TR,İstanbul,co,µg/m³
35.3,20,-3.532465,50.725082,13,8,2017,GB,Exeter,o3,µg/m³
6.67E-05,15,-79.97754,32.88229,12,8,2017,US,Charleston-North Charleston,so2,ppm
0.005578947,19,101.82357,6.427698,5,9,2017,TH,Narathiwat,no2,ppm
0.44657895,38,100.68369,13.60607,25,9,2017,TH,Samut Prakan,co,ppm
17.61111,18,-0.772222,52.554443,9,11,2017,GB,Market Harborough,no2,µg/m³
126,16,-3.133508,51.68058,9,11,2017,GB,Swfrryd,no2,µg/m³
60.213154,92,,,9,11,2017,IN,Jaipur,o3,µg/m³
11.1222725,22,-72.47996,-36.65912,12,9,2017,CL,Ránquil,pm10,µg/m³
0.005714286,14,101.82357,6.427698,12,9,2017,TH,Narathiwat,no2,ppm
3.4210527,19,-7.331179,55.00282,20,8,2017,GB,Derry,so2,µg/m³
48.210526,19,-1.068583,50.82881,20,8,2017,GB,Portsmouth,o3,µg/m³
0.007575397,252,-118.140594,34.045265,19,8,2017,US,Los Angeles-Long Beach-Santa Ana,no2,ppm
0.31789473,19,-122.295,38.3108,19,8,2017,US,Napa,co,ppm
0.01085,20,-72.9028,41.3011,19,8,2017,US,New Haven-Milford,no2,ppm
0.032411765,17,-85.7381,30.1289,19,8,2017,US,Panama City-Lynn Haven,o3,ppm
0.0194375,80,-80.15608,26.244362,19,8,2017,US,Miami-Fort Lauderdale-Miami Beach,o3,ppm
9.1,21,-80.3386,26.0732,19,8,2017,US,Miami-Fort Lauderdale-Miami Beach,pm25,µg/m³
0.032238096,21,-87.994644,37.324852,19,8,2017,US,Decatur,o3,ppm
0.4504762,21,-87.59639,37.977222,19,8,2017,US,Evansville,co,ppm
0.024238095,21,-77.5733,35.235,19,8,2017,US,Kinston,o3,ppm
10.833333,21,-77.8769,40.8114,19,8,2017,US,State College,pm25,µg/m³
0.015473684,19,-97.0056,28.8358,19,8,2017,US,Victoria,o3,ppm
0.039904762,21,-113.1506,37.1983,19,8,2017,US,St. George,o3,ppm
3.75E-04,40,-77.33402,37.454575,19,8,2017,US,Richmond,so2,ppm
5.1709676,62,-117.47891,46.926914,19,8,2017,US,Pullman,pm25,µg/m³
14.433735,83,-87.964714,43.15088,19,8,2017,US,Milwaukee-Waukesha-West Allis,pm25,µg/m³
11.333333,21,-109.7531,42.7186,19,8,2017,US,SUBLETTE,pm10,µg/m³
17.61158,19,-70.323906,-27.370329,25,9,2017,CL,Copiapó,pm25,µg/m³
3.1304348,46,-2.28601,53.483166,12,9,2017,GB,Manchester,pm25,µg/m³
47.869564,23,-1.478096,53.37862,12,9,2017,GB,Sheffield,o3,µg/m³
7.5416665,24,-70.5463,44.5514,12,9,2017,US,OXFORD,pm25,µg/m³
0.022166668,24,-76.84619,39.143196,12,9,2017,US,HOWARD,no2,ppm
0.028708333,24,-70.7859,41.3306,12,9,2017,US,DUKES,o3,ppm
9.191667,24,-83.8908,43.5714,12,9,2017,US,Bay City,pm25,µg/m³
9.980851,94,-115.16401,36.04738,11,9,2017,US,Las Vegas-Paradise,pm25,µg/m³
0.045166668,12,-114.2158,39.0053,11,9,2017,US,WHITE PINE,o3,ppm
0.028545454,22,-84.0539,40.771,12,9,2017,US,Lima,o3,ppm
0.031636365,22,-95.79413,34.906082,12,9,2017,US,McAlester,o3,ppm
16.566668,24,-95.79413,34.906082,12,9,2017,US,McAlester,pm25,µg/m³
11.195833,24,-75.08083,39.99139,12,9,2017,US,PHILADELPHIA,pm25,µg/m³
0.030478261,23,-105.586,41.30283,11,9,2017,US,Laramie,o3,ppm
768.86456,24,-70.59479,-33.591393,14,10,2017,CL,Puente Alto,co,µg/m³
0.003363158,19,120.440834,23.462778,29,9,2017,TW,嘉義市,so2,ppm
0.002160526,38,121.06378,24.820393,29,9,2017,TW,新竹縣,so2,ppm
21.166666,18,-47.414314,-22.563604,23,9,2017,BR,Limeira,no2,µg/m³
24.949808,104,-4.8108015,37.97955,23,9,2017,ES,Córdoba,pm10,µg/m³
23.361626,80,-4.586377,36.669075,23,9,2017,ES,Málaga,pm10,µg/m³
6.6538463,260,-2.0849454,37.00355,23,9,2017,ES,Almería,so2,µg/m³
15.712825,223,-3.9233198,43.332954,23,9,2017,ES,Cantabria,no2,µg/m³
50.871212,396,2.13485,41.560467,23,9,2017,ES,Barcelona,o3,µg/m³
4.928571,42,36.18824,36.461082,23,9,2017,TR,Hatay,so2,µg/m³
0.017316982,159,121.52897,25.076199,25,9,2017,TW,臺北市,no2,ppm
32.65,20,-46.54623,-23.698671,12,9,2017,BR,São Bernardo do Campo,no2,µg/m³
25.905167,60,-71.43391,-32.76376,12,9,2017,CL,Puchuncaví,pm10,µg/m³
41.88762,21,-72.47721,-36.743904,12,9,2017,CL,Quillón,o3,µg/m³
9.3739395,33,-70.725876,-34.15282,13,10,2017,CL,Rancagua,pm25,µg/m³
74.666664,18,-4.776583,57.734455,14,10,2017,GB,Strath Vaich,o3,µg/m³
16.166666,18,-2.638139,53.54914,14,10,2017,GB,Wigan,no2,µg/m³
0.003789474,19,-71.36972,46.77417,12,9,2017,CA,QUEBEC,no2,ppm
9.27551,98,-122.69704,50.627304,12,9,2017,CA,BRITISH COLUMBIA,pm10,µg/m³
1.0213044,46,-122.023796,37.740578,12,9,2017,US,San Francisco-Oakland-Fremont,bc,µg/m³
0,22,-118.33083,37.360703,12,9,2017,US,Bishop,so2,ppm
0.04852381,21,-120.3786,37.9817,12,9,2017,US,Phoenix Lake-Cedar Ridge,o3,ppm
6.825,68,-106.577286,35.11852,12,9,2017,US,Albuquerque,pm25,µg/m³
8.33E-05,48,-108.2247,36.76955,12,9,2017,US,Farmington,so2,ppm
57.465,20,-121.5296,45.7035,12,9,2017,US,HOOD RIVER,pm25,µg/m³
0.003461539,13,-80.8683,34.1311,12,9,2017,US,Columbia,no2,ppm
0.0395,22,-110.77,39.5958,12,9,2017,US,CARBON,o3,ppm
0.12913044,23,-104.778336,41.18222,12,9,2017,US,Cheyenne,co,ppm
5.744167,24,-73.03613,-36.92333,28,9,2017,CL,Chiguayante,so2,µg/m³
51.907825,23,-72.27747,-37.023624,28,9,2017,CL,Cabrero,pm10,µg/m³
10.932763,23,4.71501,52.3275,23,9,2017,NL,Hoofddorp,pm10,µg/m³
452.27274,22,6.800642,49.306103,9,11,2017,DE,Saarland,co,µg/m³
1.9479452,73,6.8537674,51.414707,9,11,2017,DE,Nordrhein-Westfalen,so2,µg/m³
1.1262857,140,7.6568565,49.82349,9,11,2017,DE,Rheinland-Pfalz,so2,µg/m³
29.804358,140,13.528952,52.405807,9,11,2017,DE,Brandenburg,o3,µg/m³
9.333333,45,-2.657469,41.745617,8,11,2017,ES,Soria,no2,µg/m³
41.60484,124,-2.9148633,43.26513,9,11,2017,ES,Bizkaia,o3,µg/m³
61.52381,21,-4.70083,40.66472,8,11,2017,ES,Ávila,o3,µg/m³
158.5592,152,32.821465,39.938927,9,11,2017,TR,Ankara,pm10,µg/m³
2181.5789,57,32.853497,39.927513,9,11,2017,TR,Ankara,co,µg/m³
19.147367,95,29.802336,40.819134,9,11,2017,TR,Kocaeli,o3,µg/m³
21.481739,46,5.45859,51.45645,28,10,2017,NL,Eindhoven,no2,µg/m³
-999,23,4.64232,52.3705,28,10,2017,NL,Haarlem,no2,µg/m³
54.373043,23,6.60894,53.2465,28,10,2017,NL,Groningen,o3,µg/m³
5.296408,23,4.40139,51.9214,28,10,2017,NL,Schiedam,pm25,µg/m³
28.35,20,-2.452724,53.74775,31,8,2017,GB,Blackburn,no2,µg/m³
0.31578946,19,-71.7947,42.2639,30,8,2017,US,Worcester,pm25,µg/m³
17.553333,75,-71.497475,-32.791183,6,11,2017,CL,Quintero,so2,µg/m³
0.3458228,7043,34.81231,32.068073,5,11,2017,IL,גוש דן,co,ppm
3656.9355,62,77.313774,28.410122,6,11,2017,IN,Faridabad,co,µg/m³
0.029304348,23,-78.3889,40.515,28,8,2017,US,Altoona,o3,ppm
464.43625,24,-70.58813,-33.516632,26,10,2017,CL,La Florida,co,µg/m³
-90.89589,110,153.07405,-27.50786,5,9,2017,AU,South East Queensland,so2,ppm
9.141666,132,151.27232,-24.427116,5,9,2017,AU,Gladstone,pm25,µg/m³
40.908215,56,-73.11415,-36.733833,5,9,2017,CL,Talcahuano,pm10,µg/m³
51.4713,300,11.16941,50.8923,28,10,2017,DE,Thüringen,o3,µg/m³
26.074469,94,-4.071951,38.750717,28,10,2017,ES,Ciudad Real,no2,µg/m³
16.745625,16,9.475978,42.535824,28,10,2017,FR,Haute-Corse,pm10,µg/m³
75.63542,22,20.6989,41.53583,28,10,2017,MK,Mavrovo and Rostusa Municipality,o3,µg/m³
8.142858,21,-2.736665,52.22174,14,8,2017,GB,Leominster,no2,µg/m³
0.035772726,22,-109.3892,32.0092,13,8,2017,US,Sierra Vista-Douglas,o3,ppm
14.175,40,-111.88073,32.987263,13,8,2017,US,PINAL,pm10,µg/m³
17.472727,22,-122.2978,40.4531,13,8,2017,US,Redding,pm25,µg/m³
0,20,-72.9028,41.3011,13,8,2017,US,New Haven-Milford,so2,ppm
7.081188,101,-94.5237,39.06705,13,8,2017,US,Kansas City,pm25,µg/m³
0.21428572,21,-76.84619,39.143196,13,8,2017,US,HOWARD,co,ppm
0.009766667,60,-90.23959,38.65356,13,8,2017,US,St. Louis,no2,ppm
4.55E-05,44,-95.95554,41.284935,13,8,2017,US,Omaha-Council Bluffs,so2,ppm
0.030619048,21,-71.51453,43.21847,13,8,2017,US,Concord,o3,ppm
1.18E-04,68,-81.46587,41.6158,13,8,2017,US,Cleveland-Elyria-Mentor,so2,ppm
18.463636,22,-121.73137,42.190296,13,8,2017,US,Klamath Falls,pm25,µg/m³
0.34666666,15,-80.9622,34.0939,13,8,2017,US,Columbia,co,ppm
5.6318183,22,-117.985,46.318,13,8,2017,US,COLUMBIA,pm25,µg/m³
7.7078123,64,-119.766174,48.418247,13,8,2017,US,OKANOGAN,pm25,µg/m³
9.147619,42,-117.947945,48.19924,13,8,2017,US,STEVENS,pm25,µg/m³
3.1227272,22,-122.8215,47.0293,13,8,2017,US,Olympia,pm25,µg/m³
0.0019,20,-109.7897,41.7506,13,8,2017,US,SWEETWATER,no2,ppm
3.9913044,115,29.14071,40.17621,29,9,2017,TR,Bursa,so2,µg/m³
-1111,23,146.8272,-19.2526,28,9,2017,AU,Townsville,pm10,µg/m³
0.001776191,21,119.949875,26.16047,28,9,2017,TW,連江縣,so2,ppm
37.387917,24,-70.75017,-33.437813,22,1,2016,CL,Pudahuel,o3,µg/m³
-480.75748,48,5.695275,50.849,22,1,2016,NL,Maastricht,pm25,µg/m³
64.7,340,106.88854,47.91228,22,1,2016,MN,Ulaanbaatar,so2,µg/m³
5.450909,11,-73.228516,-39.831318,22,1,2016,CL,Valdivia,pm25,µg/m³
37.30958,24,-72.47996,-36.65912,21,1,2016,CL,Ránquil,pm10,µg/m³
32.069584,24,-72.47721,-36.743904,21,1,2016,CL,Quillón,o3,µg/m³
3.5251667,24,-72.049965,-45.579044,22,1,2016,CL,Coyhaique,no2,µg/m³
7.5777307,26,-71.27621,-29.940195,21,1,2016,CL,Coquimbo,pm25,µg/m³
5.3925653,23,-70.383316,-23.613543,21,1,2016,CL,Antofagasta,pm25,µg/m³
2.9386957,23,-71.67826,-35.435143,26,9,2017,CL,Talca,so2,µg/m³
23.97875,80,14.553424,50.2081,9,11,2017,CZ,Středočeský,no2,µg/m³
8.714286,35,-2.7231348,41.738373,9,11,2017,ES,Soria,pm10,µg/m³
7.1666665,60,-5.6903334,42.713223,9,11,2017,ES,León,so2,µg/m³
43.86178,45,-0.6094641,47.931713,9,11,2017,FR,Mayenne,o3,µg/m³
16.24322,20,7.148326,46.13899,14,10,2017,CH,Valais,pm10,µg/m³
10.494286,21,6.987601,49.233463,14,10,2017,DE,Saarland,pm25,µg/m³
13.001875,16,6.15761,47.620014,14,10,2017,FR,Haute-Saône,pm10,µg/m³
1.8052942,17,4.076944,48.301666,14,10,2017,FR,Aube,so2,µg/m³
26.165264,57,2.2775211,49.883606,14,10,2017,FR,Somme,no2,µg/m³
31.624495,24,5.85778,51.8414,24,10,2015,NL,Nijmegen,pm10,µg/m³
47.458332,24,-69.31814,-22.888723,23,10,2015,CL,Sierra Gorda,pm10,µg/m³
219.40375,24,-70.74829,-33.365776,23,10,2015,CL,Quilicura,co,µg/m³
2.6883478,23,-70.71392,-34.162315,23,10,2015,CL,Rancagua,so2,µg/m³
73.020836,24,-70.74829,-33.365776,23,10,2015,CL,Quilicura,pm10,µg/m³
19.488853,34,-70.72416,-34.154186,23,10,2015,CL,Rancagua,pm25,µg/m³
277.7625,24,-70.73215,-33.43309,24,10,2015,CL,Cerro Navia,co,µg/m³
24.291666,24,-70.73215,-33.43309,24,10,2015,CL,Cerro Navia,pm10,µg/m³
24.803186,91,-71.49777,-32.79155,27,10,2017,CL,Quintero,so2,µg/m³
45.130436,23,1.122017,52.95049,28,10,2017,GB,Weybourne,o3,µg/m³
0.74285716,7,-119.77321,36.785378,27,10,2017,US,FRESNO,co,ppm
18.142857,7,-115.4833,32.6761,27,10,2017,US,El Centro,pm25,µg/m³
10.333333,21,-120.88482,40.015713,27,10,2017,US,PLUMAS,pm25,µg/m³
82,7,-120.9936,37.6583,27,10,2017,US,Modesto,pm10,µg/m³
5.8714285,7,-112.458885,42.589832,27,10,2017,US,BANNOCK,pm25,µg/m³
130,7,-90.6883,41.4672,27,10,2017,US,Davenport-Moline-Rock Island,pm10,µg/m³
0.37333333,6,-71.7947,42.2639,27,10,2017,US,Worcester,co,ppm
0.034,19,-80.44194,41.245792,27,10,2017,US,Youngstown-Warren-Boardman,o3,ppm
12.35,6,-75.6231,41.4428,27,10,2017,US,Scranton--Wilkes-Barre,pm25,µg/m³
0.022285715,7,-94.71181,32.37868,27,10,2017,US,Longview,o3,ppm
0.0185,6,-96.3992,32.0319,27,10,2017,US,Corsicana,o3,ppm
0.03242857,14,-109.204575,41.45419,27,10,2017,US,SWEETWATER,o3,ppm
11.423318,23,4.64053,52.4893,14,8,2017,NL,Beverwijk West,pm10,µg/m³
0.33888888,27,-113.65629,52.89756,13,10,2017,CA,ALBERTA,co,ppm
0.004514286,35,-123.37819,52.567142,13,10,2017,CA,BRITISH COLUMBIA,no2,ppm
0.021,1,-87.6506,34.7606,13,10,2017,US,Florence-Muscle Shoals,o3,ppm
0.026714286,7,-123.202995,39.145733,13,10,2017,US,Ukiah,o3,ppm
7.7272725,11,-120.572716,39.291237,13,10,2017,US,Truckee-Grass Valley,pm25,µg/m³
17.789286,28,-117.00955,32.857063,13,10,2017,US,San Diego-Carlsbad-San Marcos,pm25,µg/m³
0.0495,6,-120.66889,35.25639,13,10,2017,US,SAN LUIS OBISPO,o3,ppm
0.8864286,14,-121.8723,37.343254,13,10,2017,US,San Jose-Sunnyvale-Santa Clara,co,ppm
21.142857,7,-72.679924,41.771442,13,10,2017,US,Hartford-West Hartford-East Hartford,pm10,µg/m³
0,7,-73.3033,41.8331,13,10,2017,US,Torrington,so2,ppm
0.027785715,28,-71.41825,41.658203,13,10,2017,US,Providence-New Bedford-Fall River,o3,ppm
0.03242857,7,-109.455315,47.04854,13,10,2017,US,FERGUS,o3,ppm
5.4142857,7,-75.225,43.0994,13,10,2017,US,Utica-Rome,pm25,µg/m³
14.085714,7,-94.6697,35.7506,13,10,2017,US,ADAIR,pm25,µg/m³
9.75,14,-76.19791,40.0453,13,10,2017,US,Lancaster,pm25,µg/m³
0.028666668,6,-96.70721,42.75152,13,10,2017,US,UNION,o3,ppm
0.027125001,24,-83.98758,35.9024,13,10,2017,US,Knoxville,o3,ppm
0.2,6,-77.40027,37.55652,13,10,2017,US,Richmond,co,ppm
10.714286,7,-105.586,41.30283,13,10,2017,US,Laramie,pm25,µg/m³
12.333333,21,-4.227678,50.411465,29,9,2017,GB,Saltash,pm10,µg/m³
0.005727755,3866,34.943054,29.540665,16,9,2017,IL,אילת,no2,ppm
571.36957,46,19.696945,52.555885,9,10,2015,PL,Płock,co,µg/m³
-51.479168,24,4.22802,51.932,9,10,2015,NL,Maassluis,no2,µg/m³
44.291668,24,-70.75017,-33.437813,8,10,2015,CL,Pudahuel,pm10,µg/m³
16.708334,24,-70.52332,-33.376774,8,10,2015,CL,Las Condes,pm25,µg/m³
25.3075,40,15.898878,49.879555,6,11,2017,CZ,Pardubický,o3,µg/m³
75.86207,29,-6.7351103,38.682114,6,11,2017,ES,Badajoz,co,µg/m³
787.9664,119,-6.87881,37.213234,6,11,2017,ES,Huelva,co,µg/m³
64.65813,112,1.082944,41.91921,6,11,2017,ES,Lleida,o3,µg/m³
6.7227273,22,3.600667,46.652668,6,11,2017,FR,Allier,pm10,µg/m³
51.658985,69,8.7715025,41.946476,6,11,2017,FR,Corse-du-Sud,o3,µg/m³
16.322727,22,18.122612,42.6447,6,11,2017,HR,Dubrovacko-neretvanska,no2,µg/m³
11.155,44,10.4653,61.116875,6,11,2017,NO,Lillehammer,pm10,µg/m³
57.727272,22,-2.472056,53.46008,5,10,2017,GB,Glazebury,o3,µg/m³
14.380953,21,-4.041924,51.074795,5,10,2017,GB,Barnstaple,pm10,µg/m³
19.905455,22,-73.11869,-36.735996,4,9,2017,CL,Talcahuano,no2,µg/m³
-175.6537,46,4.8029804,51.598297,5,9,2017,NL,Breda,no2,µg/m³
31.854166,48,-2.098316,57.145267,11,11,2017,GB,Aberdeen,no2,µg/m³
28.774546,22,-73.11872,-40.58448,6,11,2017,CL,Osorno,pm10,µg/m³
36.99174,23,-71.23397,-34.974926,8,9,2017,CL,Curicó,pm10,µg/m³
3.952174,23,-88.27792,32.36253,8,9,2017,US,SUMTER,pm25,µg/m³
59.683895,503,-111.95814,33.34484,8,9,2017,US,Phoenix-Mesa-Scottsdale,pm10,µg/m³
20.98182,44,-95.8759,41.286438,8,9,2017,US,MADISON,pm25,µg/m³
44.260868,23,-95.47594,37.67696,8,9,2017,US,NEOSHO,pm10,µg/m³
7.9565215,23,-76.1408,38.5876,8,9,2017,US,DORCHESTER,pm25,µg/m³
0.022454545,66,-80.2375,36.0625,8,9,2017,US,Winston-Salem,o3,ppm
0.02188889,63,-81.36728,40.824265,8,9,2017,US,Canton-Massillon,o3,ppm
5.6391306,23,-81.372856,40.800797,8,9,2017,US,Canton-Massillon,pm25,µg/m³
12.917391,23,-95.79413,34.906082,8,9,2017,US,McAlester,pm25,µg/m³
0.026625,16,-79.9211,39.6489,8,9,2017,US,Morgantown,o3,ppm
66.21764,17,-70.65116,-33.422302,22,10,2017,CL,Independencia,o3,µg/m³
9.08E-04,8331,34.915596,31.894844,22,10,2017,IL,שפלה פנימית,so2,ppm
51.959324,59,,,23,10,2017,IN,Ahmedabad,pm25,µg/m³
2.31E-04,39,-61.41015,45.812782,21,9,2017,CA,NOVA SCOTIA,no2,ppm
0.018767634,241,-113.339584,53.89055,21,9,2017,CA,ALBERTA,o3,ppm
13.893333,15,-86.5917,34.6917,21,9,2017,US,Huntsville,pm25,µg/m³
0.009692308,13,-82.74,27.7858,21,9,2017,US,Tampa-St. Petersburg-Clearwater,no2,ppm
16.692308,13,-82.4797,27.3503,21,9,2017,US,Sarasota-Bradenton-Venice,pm10,µg/m³
8.928572,14,-93.6433,41.6031,21,9,2017,US,Des Moines,pm25,µg/m³
0.14846154,13,-68.0331,46.6964,21,9,2017,US,AROOSTOOK,co,ppm
0.020066667,15,-92.51172,46.713696,21,9,2017,US,CARLTON,o3,ppm
6.428571,14,-112.50089,46.0024,21,9,2017,US,SILVER BOW,pm10,µg/m³
0,14,-74.21481,40.662388,21,9,2017,US,UNION,so2,ppm
0.024615385,13,-72.86897,44.52839,21,9,2017,US,Burlington-South Burlington,o3,ppm
0.032153845,13,-111.0419,41.3694,21,9,2017,US,Evanston,o3,ppm
66.58,9,-73.11872,-40.58448,28,9,2017,CL,Osorno,pm10,µg/m³
40,13,-111.9405,32.39943,28,9,2017,US,PIMA,pm10,µg/m³
65,6,-120.9936,37.6583,28,9,2017,US,Modesto,pm10,µg/m³
0.032,7,-75.5556,38.9847,28,9,2017,US,Dover,o3,ppm
5.3285713,7,-75.5556,38.9847,28,9,2017,US,Dover,pm25,µg/m³
0.3,14,-81.6698,30.314693,28,9,2017,US,DUVAL,co,ppm
0.047583334,12,-87.237595,30.446548,28,9,2017,US,Pensacola-Ferry Pass-Brent,o3,ppm
0.027026666,75,-86.16118,39.76237,28,9,2017,US,Indianapolis,o3,ppm
0.19666666,6,-76.84619,39.143196,28,9,2017,US,HOWARD,co,ppm
0.3,7,-76.8783,39.0553,28,9,2017,US,Washington-Arlington-Alexandria,bc,µg/m³
0.025642857,14,-83.56555,43.098602,28,9,2017,US,Flint,o3,ppm
0.027142858,7,-71.51453,43.21847,28,9,2017,US,Concord,o3,ppm
10.042857,14,-78.88555,35.94065,28,9,2017,US,Durham,pm25,µg/m³
0.120000005,5,-80.9622,34.0939,28,9,2017,US,Columbia,co,ppm
0.2,7,-111.6632,40.2535,28,9,2017,US,Provo-Orem,co,ppm
9.5253525,71,-122.28056,47.48766,28,9,2017,US,Seattle-Tacoma-Bellevue,pm25,µg/m³
5.55,12,-117.94591,48.214943,28,9,2017,US,STEVENS,pm25,µg/m³
7.857143,7,-104.778336,41.18222,28,9,2017,US,Cheyenne,pm10,µg/m³
0.025571428,7,-106.96176,44.80353,28,9,2017,US,Sheridan,o3,ppm
0.003614504,131,151.14601,-33.878223,28,9,2017,AU,Sydney East,no2,ppm
7.658244,12,17.42489,68.435394,27,9,2017,NO,Narvik,pm25,µg/m³
4.142857,21,-70.383316,-23.613543,12,9,2017,CL,Antofagasta,pm25,µg/m³
83.52381,21,34.776966,41.461216,29,8,2017,TR,Sinop,co,µg/m³
-999,24,4.60199,52.494,23,10,2017,NL,Wijk aan Zee,no2,µg/m³
-999,24,4.77077,52.28,23,10,2017,NL,Oude Meer,no2,µg/m³
24.043999,167,10.761903,59.921127,23,10,2017,NO,Oslo,no2,µg/m³
0.78059524,84,100.55719,13.732101,23,10,2017,TH,Bangkok,co,ppm
4.935294,17,10.5839,59.9181,23,9,2017,NO,Bærum,pm25,µg/m³
-7.3584905,159,78.46276,17.390345,19,9,2017,IN,Hyderabad,pm25,µg/m³
-27.074348,23,4.98744,52.2015,26,10,2017,NL,Breukelen,o3,µg/m³
-16.142174,23,6.40293,52.3883,26,10,2017,NL,Hellendoorn,o3,µg/m³
4.9239945,23,4.28919,52.0771,26,10,2017,NL,Den Haag,pm25,µg/m³
-492.13675,46,5.85736,51.839798,26,10,2017,NL,Nijmegen,pm25,µg/m³
-998,23,3.74948,51.2945,26,10,2017,NL,Philippine,so2,µg/m³
79.111115,18,,,29,8,2017,BA,Kakanj,o3,µg/m³
0.36819497,2421,35.194904,32.902687,22,9,2017,IL,צפון,co,ppm
2.685,62,-70.514366,-34.2376,4,10,2017,CL,Machalí,so2,µg/m³
-999,40,5.695275,50.849,5,10,2017,NL,Maastricht,o3,µg/m³
3.912148,20,4.51082,52.2966,5,10,2017,NL,De Zilk,pm25,µg/m³
22.79462,409,-5.600031,36.32398,14,10,2017,ES,Cádiz,no2,µg/m³
16.921053,38,-3.0916014,51.56779,25,9,2017,GB,Cardiff,no2,µg/m³
585.5,40,,,25,9,2017,IN,Aurangabad,co,µg/m³
63.15725,40,,,25,9,2017,IN,Aurangabad,pm10,µg/m³
49.45,20,-47.11928,-22.946728,27,9,2017,BR,Campinas,pm25,µg/m³
13.62371,62,5.4068475,48.996082,23,9,2017,FR,Meuse,no2,µg/m³
12.073077,39,-1.3070585,49.329723,23,9,2017,FR,Manche,no2,µg/m³
602.44446,18,-118.95711,37.857708,20,9,2017,US,MONO,pm10,µg/m³
0.043050505,99,-115.10136,36.22657,20,9,2017,US,Las Vegas-Paradise,o3,ppm
1.11E-04,9,-105.5,43.1,20,9,2017,US,CONVERSE,no2,ppm
13.7325,16,85.0755,25.3636,23,9,2017,IN,Patna,so2,µg/m³
19.653696,46,-72.09123,-36.605988,26,10,2017,CL,Chillán,pm10,µg/m³
70.111115,9,100.26425,13.550478,26,10,2017,TH,Samut Sakhon,pm10,µg/m³
0.010666667,12,,,26,10,2017,TH,Satun,o3,ppm
31.285715,21,-4.241451,57.481308,26,10,2017,GB,Inverness,no2,µg/m³
71.545456,22,-4.776583,57.734455,26,10,2017,GB,Strath Vaich,o3,µg/m³
42.473682,38,32.642685,41.193516,6,11,2017,TR,Karabük,pm10,µg/m³
1578.1842,38,32.642685,41.193516,6,11,2017,TR,Karabük,co,µg/m³
156.2,35,80.32517,26.470308,28,10,2017,IN,Kanpur,pm25,µg/m³
35.919327,119,7.1367936,51.406796,9,11,2017,DE,Nordrhein-Westfalen,pm25,µg/m³
16.663322,89,7.9209437,49.90409,9,11,2017,DE,Rheinland-Pfalz,pm25,µg/m³
0.2717647,17,121.59977,23.971306,9,11,2017,TW,花蓮縣,co,ppm
46.61905,21,0.634889,51.45617,11,11,2017,GB,Rochester,o3,µg/m³
47.0015,20,-70.65116,-33.422302,10,11,2017,CL,Independencia,no2,µg/m³
5.332374,139,-71.4229,41.713066,11,9,2017,US,Providence-New Bedford-Fall River,pm25,µg/m³
0.007777778,18,-75.067825,40.924606,11,9,2017,US,WARREN,o3,ppm
1.74E-04,23,-97.081276,36.69719,11,9,2017,US,KAY,so2,ppm
0.023573034,89,-83.973434,35.86964,11,9,2017,US,Knoxville,o3,ppm
2.5370371,108,-0.075298354,40.107784,6,11,2017,ES,Castellón/Castelló,pm25,µg/m³
4.3320756,265,-0.10835535,40.19327,6,11,2017,ES,Castellón/Castelló,so2,µg/m³
4.122667,15,-70.71392,-34.162315,11,9,2017,CL,Rancagua,so2,µg/m³
1322.759,22,-70.73215,-33.43309,23,9,2017,CL,Cerro Navia,co,µg/m³
2.95,20,-2.094278,57.15736,2,11,2017,GB,Aberdeen,pm25,µg/m³
7,27,-72.15434,46.38869,1,11,2017,CA,QUEBEC,pm25,µg/m³
0.042555556,9,-121.0556,39.2344,1,11,2017,US,Truckee-Grass Valley,o3,ppm
0.02073077,26,-97.386894,37.68392,1,11,2017,US,Wichita,o3,ppm
9.75,8,-71.7947,42.2639,1,11,2017,US,Worcester,pm25,µg/m³
0.027084507,71,-115.18806,36.09207,1,11,2017,US,Las Vegas-Paradise,o3,ppm
9.666667,9,-83.4436,35.4356,1,11,2017,US,SWAIN,pm25,µg/m³
5.56E-04,9,-97.081276,36.69719,1,11,2017,US,KAY,so2,ppm
0.031111112,9,-111.85194,41.842777,1,11,2017,US,CACHE,o3,ppm
5.918182,11,-111.67236,40.26948,1,11,2017,US,Provo-Orem,pm25,µg/m³
8.89E-04,9,-105.5,43.1,1,11,2017,US,CONVERSE,no2,ppm
0.04275,8,-81.4964,31.1694,20,9,2017,US,Brunswick,o3,ppm
10.225,8,-89.5889,40.6978,20,9,2017,US,Peoria,pm25,µg/m³
0.0189375,16,-71.7479,42.18695,20,9,2017,US,Worcester,o3,ppm
5.11875,16,-105.92464,45.06781,20,9,2017,US,LAKE,pm25,µg/m³
0.021066668,15,-74.81212,40.298775,20,9,2017,US,Trenton-Ewing,o3,ppm
11.625,8,-77.5867,35.9889,20,9,2017,US,Rocky Mount,pm25,µg/m³
0.001125,8,-80.658905,41.096157,20,9,2017,US,Youngstown-Warren-Boardman,so2,ppm
0.031200001,5,-94.6697,35.7506,20,9,2017,US,ADAIR,o3,ppm
6.125,8,-119.0483,43.58925,20,9,2017,US,HARNEY,pm25,µg/m³
6.79375,16,-123.29028,42.36212,20,9,2017,US,Grants Pass,pm25,µg/m³
23.714285,7,-82.4146,34.8439,20,9,2017,US,Greenville,pm10,µg/m³
8.276,45,-73.12112,-36.72998,5,10,2017,CL,Talcahuano,pm25,µg/m³
3.0372221,18,-72.932014,-36.977432,5,10,2017,CL,Hualqui,no2,µg/m³
10.076923,39,-4.240992,55.863422,5,9,2017,GB,Glasgow,pm10,µg/m³
5,20,-1.127311,52.619823,5,9,2017,GB,Leicester,pm25,µg/m³
32.894737,19,0.290917,52.2985,5,9,2017,GB,Wicken Fen,o3,µg/m³
73.36316,19,-114.37109,43.682556,5,9,2017,US,BLAINE,pm25,µg/m³
13.2,20,-70.5463,44.5514,5,9,2017,US,OXFORD,pm25,µg/m³
0.027250001,20,-103.5144,46.9497,5,9,2017,US,Dickinson,o3,ppm
8.35,20,-102.5264,47.3203,5,9,2017,US,DUNN,pm10,µg/m³
7.7599998,20,-95.79413,34.906082,5,9,2017,US,McAlester,pm25,µg/m³
0.026857143,21,-78.5261,41.1175,5,9,2017,US,DuBois,o3,ppm
0.01715,20,-111.6632,40.2535,5,9,2017,US,Provo-Orem,no2,ppm
0.001210526,19,-122.61428,48.52059,5,9,2017,US,SKAGIT,so2,ppm
7,4,-88.81,45.5639,5,9,2017,US,FOREST,pm25,µg/m³
0.02225,8,-87.75402,43.740116,5,9,2017,US,SHEBOYGAN,o3,ppm
27.199728,21,8.904676,47.479774,29,9,2017,CH,Thurgau,o3,µg/m³
11.660317,63,27.673264,62.889717,29,9,2017,FI,Northern Savonia,no2,µg/m³
370.07367,19,0.110903,49.500187,29,9,2017,FR,Seine-Maritime,co,µg/m³
25.994738,19,18.122612,42.6447,28,9,2017,HR,Dubrovacko-neretvanska,no2,µg/m³
18.833996,20,20.95862,41.51445,29,9,2017,MK,Kicevo Municipality,pm10,µg/m³
8.8330765,39,,,9,10,2017,IN,Jorapokhar,no2,µg/m³
14.714286,21,-70.72379,-33.34963,24,9,2017,CL,Quilicura,pm25,µg/m³
67.8421,19,-70.66621,-33.5471,23,9,2017,CL,El Bosque,pm10,µg/m³
0.03190476,21,8.427402,56.29038,6,9,2017,DK,Danish Background Monitoring Network,no2,µg/m³
9.136364,33,147.20818,-35.477592,17,10,2017,AU,South-west Slopes,pm10,µg/m³
0.001134259,10555,34.681744,31.69165,17,10,2017,IL,מישור החוף הדרומי,so2,ppm
16.758236,17,-2.763889,47.648888,9,11,2017,FR,Morbihan,pm10,µg/m³
0.00552381,21,-122.237976,38.10251,28,8,2017,US,Vallejo-Fairfield,no2,ppm
46.65652,23,-121.31255,44.063915,28,8,2017,US,Bend,pm25,µg/m³
30.375,24,-105.586,41.30283,28,8,2017,US,Laramie,pm10,µg/m³
29.130434,23,-105.5,43.1,28,8,2017,US,CONVERSE,pm10,µg/m³
0.16454546,22,100.13193,15.707849,6,11,2017,TH,Nakhon Sawan,co,ppm
35,20,97.97153,19.3045,6,11,2017,TH,Mae Hong Son,pm10,µg/m³
2.3043478,23,35.83796,40.657223,6,11,2017,TR,Amasya,o3,µg/m³
14.599211,38,-70.725525,-34.1531,14,10,2017,CL,Rancagua,pm25,µg/m³
29.669655,58,76.85318,30.705778,17,10,2017,IN,Panchkula,o3,µg/m³
7.476316,38,10.597925,59.912086,17,10,2017,NO,Bærum,pm10,µg/m³
0.002119048,42,100.67088,13.612155,17,10,2017,TH,Samut Prakan,so2,ppm
0.005590909,22,101.28,6.549994,17,10,2017,TH,Yala,no2,ppm
113.106384,47,100.902725,14.601614,14,2,2016,TH,Saraburi,pm10,µg/m³
0.034434784,23,,,15,2,2016,TH,Chiang Mai,o3,ppm
16.44878,205,-0.15187664,51.507637,14,2,2016,GB,London,pm25,µg/m³
6.215833,24,6.27681,53.3304,14,2,2016,NL,Kollumerwaard,no2,µg/m³
-36.571667,24,6.93243,52.8757,14,2,2016,NL,Valthermond,o3,µg/m³
31.109583,24,-72.47721,-36.743904,13,2,2016,CL,Quillón,pm10,µg/m³
56.140625,192,-46.476562,-23.038706,8,10,2017,BR,Sao Paulo,o3,µg/m³
11.227234,47,-73.121124,-36.729977,8,10,2017,CL,Talcahuano,pm25,µg/m³
21.872084,24,4.64232,52.3705,9,10,2017,NL,Haarlem,o3,µg/m³
8.747685,48,4.8029804,51.598297,9,10,2017,NL,Breda,pm25,µg/m³
52.6075,20,-70.52332,-33.376774,22,9,2017,CL,Las Condes,pm10,µg/m³
35.857143,56,-4.044944,38.79447,25,9,2017,ES,Ciudad Real,pm10,µg/m³
5.263158,19,27.612913,39.181416,11,11,2017,TR,Manisa,o3,µg/m³
5.9473686,19,31.433418,41.276466,11,11,2017,TR,Zonguldak,o3,µg/m³
0.013979646,113,121.20779,24.976974,11,11,2017,TW,桃園市,no2,ppm
58.416668,48,11.821326,42.16046,8,11,2017,IT,Civitavecchia,o3,µg/m³
-21.666666,48,12.910103,42.488342,7,11,2017,IT,Rieti,no2,µg/m³
53.790337,24,5.05051,52.8037,6,1,2016,NL,Wieringerwerf,pm25,µg/m³
86,24,78.47489,17.443464,6,1,2016,IN,Hyderabad,pm25,µg/m³
40.065125,24,-70.75017,-33.437813,6,1,2016,CL,Pudahuel,o3,µg/m³
2.2828572,21,-72.049965,-45.579044,6,1,2016,CL,Coyhaique,no2,µg/m³
34.12973,37,17.332872,49.81489,1,11,2017,CZ,Olomoucký,o3,µg/m³
12.708333,24,5.7117,43.9335,1,11,2017,FR,Alpes-de-Haute-Provence,pm25,µg/m³
62.069374,144,7.094907,43.66669,1,11,2017,FR,Alpes-Maritimes,o3,µg/m³
33.97,66,1.1564299,45.86429,2,11,2017,FR,Haute-Vienne,o3,µg/m³
37.77887,50,19.09502,47.513187,2,11,2017,HU,Budapest,o3,µg/m³
0.002375,16,101.28636,13.588554,2,11,2017,TH,Chachoengsao,so2,ppm
12.523809,21,44.625607,39.795452,2,11,2017,TR,Iğdır,pm10,µg/m³
119.05,20,30.4099,40.7693,2,11,2017,TR,Sakarya,pm10,µg/m³
28.619047,42,37.013718,39.746246,2,11,2017,TR,Sivas,so2,µg/m³
0.019536585,41,121.15605,22.896687,2,11,2017,TW,臺東縣,o3,ppm
0.00381405,121,121.20704,24.975344,2,11,2017,TW,桃園市,so2,ppm
0.00225,20,,,28,9,2017,TH,Prachin Buri,so2,ppm
6.117536,69,1.3511037,48.652348,11,11,2017,FR,Eure-et-Loir,no2,µg/m³
24.38857,14,14.15113,66.31237,11,11,2017,NO,Mo i Rana,pm10,µg/m³
8.33E-04,18,101.28636,13.588554,11,11,2017,TH,Chachoengsao,no2,ppm
36.27579,24,-70.59479,-33.591393,7,10,2015,CL,Puente Alto,o3,µg/m³
24.973833,24,-70.74829,-33.365776,7,10,2015,CL,Quilicura,o3,µg/m³
28.660574,383,106.89714,47.916325,8,10,2015,MN,Ulaanbaatar,no2,µg/m³
7.1316667,24,5.05051,52.8037,8,10,2015,NL,Wieringerwerf,no2,µg/m³
11.359167,24,5.14845,51.5184,8,11,2015,NL,Biest Houtakker,no2,µg/m³
20.750694,24,4.40139,51.9214,8,11,2015,NL,Schiedam,pm10,µg/m³
-0.0922974,24,5.70842,52.1116,8,11,2015,NL,Wekerom,pm25,µg/m³
260.51334,24,-70.66621,-33.5471,7,11,2015,CL,El Bosque,co,µg/m³
6.9404116,34,-72.05653,-45.579586,7,11,2015,CL,Coyhaique,pm25,µg/m³
5.046372,43,-72.59541,-38.73673,7,11,2015,CL,Temuco,pm25,µg/m³
3.314143,21,-70.62931,-31.889278,8,11,2015,CL,Salamanca,pm10,µg/m³
9.033044,23,6.27681,53.3304,10,10,2017,NL,Kollumerwaard,no2,µg/m³
28.323652,241,78.46369,17.393307,4,10,2017,IN,Hyderabad,pm25,µg/m³
21.545454,22,-6.654558,54.35373,28,10,2017,GB,Armagh,pm10,µg/m³
6,22,-2.68345,51.05625,28,10,2017,GB,Charlton,no2,µg/m³
0.023626374,182,-72.98167,46.335938,25,9,2017,CA,QUEBEC,o3,ppm
0.02225,4,-93.0988,34.1795,25,9,2017,US,Arkadelphia,o3,ppm
5.8,15,-118.95648,37.87184,25,9,2017,US,MONO,pm10,µg/m³
0.006275,40,-121.3984,38.576008,25,9,2017,US,Sacramento--Arden-Arcade--Roseville,no2,ppm
0.015142857,7,-84.3483,30.4397,25,9,2017,US,Tallahassee,o3,ppm
0.022571428,7,-81.4964,31.1694,25,9,2017,US,Brunswick,o3,ppm
4.475,16,-105.92464,45.06781,25,9,2017,US,LAKE,pm25,µg/m³
0,8,-82.99441,40.002735,25,9,2017,US,Columbus,so2,ppm
8.3714285,7,-119.0483,43.58925,25,9,2017,US,HARNEY,pm25,µg/m³
14.2,5,-82.4146,34.8439,25,9,2017,US,Greenville,pm10,µg/m³
8.2,15,-111.68672,40.29452,25,9,2017,US,Provo-Orem,pm25,µg/m³
0.056,16,-87.707504,44.486397,25,9,2017,US,Green Bay,o3,ppm
26.333334,69,-99.131256,19.546432,25,9,2017,MX,MEXICO STATE,pm10,µg/m³
14.27044,159,-0.5660552,39.57823,28,10,2017,ES,Valencia/València,pm10,µg/m³
3.9438834,21,24.289728,54.0925,28,10,2017,LT,Alytus,o3,µg/m³
63.60078,128,7.0886927,43.66774,25,9,2017,FR,Alpes-Maritimes,o3,µg/m³
3.7291667,24,18.122612,42.6447,25,9,2017,HR,Dubrovacko-neretvanska,pm25,µg/m³
28.214066,23,21.624445,47.513332,25,9,2017,HU,Hajdú-Bihar,o3,µg/m³
0.006,1,101.28636,13.588554,7,9,2017,TH,Chachoengsao,no2,ppm
78.14493,69,21.312704,52.24511,23,1,2016,PL,Warszawa,pm10,µg/m³
2.62,21,-72.049965,-45.579044,26,9,2017,CL,Coyhaique,so2,µg/m³
6.4583335,24,-97.33083,37.6998,26,9,2017,US,Wichita,pm10,µg/m³
0.045875,8,-84.5361,42.7375,26,9,2017,US,Lansing-East Lansing,o3,ppm
0.0095,8,-94.849,39.9544,26,9,2017,US,ANDREW,o3,ppm
16.308823,68,-115.1787,36.093204,26,9,2017,US,Las Vegas-Paradise,pm10,µg/m³
0.05085714,7,-80.57281,41.959694,26,9,2017,US,Ashtabula,o3,ppm
0.013888889,9,-79.84347,32.9718,26,9,2017,US,Charleston-North Charleston,o3,ppm
2.7666667,6,-120.6647,47.5988,26,9,2017,US,Wenatchee,pm25,µg/m³
28.007229,83,80.21974,12.9942875,12,11,2017,IN,Chennai,o3,µg/m³
-999,22,4.46134,51.9271,12,11,2017,NL,Rotterdam Noord ,no2,µg/m³
-38.905,22,3.74948,51.2945,12,11,2017,NL,Philippine,no2,µg/m³
53.115456,22,6.01757,52.6541,12,11,2017,NL,Barsbeek,o3,µg/m³
2.7625763,22,4.12194,51.9778,12,11,2017,NL,Hoek v. Holland,pm25,µg/m³
7.7182035,22,5.70842,52.1116,12,11,2017,NL,Wekerom,pm25,µg/m³
5.0295,20,-70.59479,-33.591393,24,9,2017,CL,Puente Alto,so2,µg/m³
76.03333,24,4.77401,52.334,25,12,2015,NL,Badhoevedorp,co,µg/m³
-35.113335,24,6.93243,52.8757,25,12,2015,NL,Valthermond,no2,µg/m³
27.63,24,-70.19325,-22.087,24,12,2015,CL,Tocopilla,no2,µg/m³
47.670544,24,-70.73215,-33.43309,24,12,2015,CL,Cerro Navia,o3,µg/m³
11.725915,47,-72.343414,-37.467197,24,12,2015,CL,Los Angeles,pm25,µg/m³
20,7,98.39429,7.881636,25,12,2015,TH,Phuket,pm10,µg/m³
1.6054054,74,-8.656472,42.31788,25,9,2017,ES,Pontevedra,so2,µg/m³
6.236842,38,-2.28601,53.483166,6,9,2017,GB,Manchester,pm25,µg/m³
52.842106,19,-7.331179,55.00282,6,9,2017,GB,Derry,o3,µg/m³
51.15,20,-0.147572,50.840836,6,9,2017,GB,Brighton,o3,µg/m³
21.421053,19,-2.678731,51.638096,6,9,2017,GB,Chepstow,pm10,µg/m³
3.875909,22,-68.650894,-22.342264,17,10,2017,CL,Calama,so2,µg/m³
7.134375,64,73.03791,26.292065,18,10,2017,IN,Jodhpur,so2,µg/m³
-999,23,4.60184,52.463,18,10,2017,NL,IJmuiden,no2,µg/m³
-999,69,4.89928,52.379665,18,10,2017,NL,Amsterdam,o3,µg/m³
8.319501,23,4.9233,51.9745,18,10,2017,NL,Cabauw,pm25,µg/m³
23.724646,23,6.93243,52.8757,18,10,2017,NL,Valthermond,pm10,µg/m³
0.17590278,144,-112.08685,33.415524,4,9,2017,US,Phoenix-Mesa-Scottsdale,co,ppm
12.868421,38,-120.61505,35.257675,4,9,2017,US,San Luis Obispo-Paso Robles,pm25,µg/m³
12.861842,76,-85.7361,38.164574,4,9,2017,US,Louisville,pm25,µg/m³
0.03375,16,-82.6431,43.8364,4,9,2017,US,HURON,o3,ppm
12.526316,19,-93.27205,45.01361,4,9,2017,US,HENNEPIN,pm25,µg/m³
0.047036145,83,-109.568535,40.32436,4,9,2017,US,UINTAH,o3,ppm
9.894737,19,-78.0814,39.2828,4,9,2017,US,Winchester,pm25,µg/m³
0.048,18,-108.7203,42.5275,4,9,2017,US,Riverton,o3,ppm
0.04782353,17,-104.778336,41.18222,4,9,2017,US,Cheyenne,o3,ppm
457.14285,21,36.552105,40.318665,22,8,2017,TR,Tokat,co,µg/m³
11.454497,42,6.8066034,46.681416,6,11,2017,CH,Vaud,no2,µg/m³
2.6666667,21,-4.70083,40.66472,6,11,2017,ES,Ávila,no2,µg/m³
3.0546775,24,19.154999,48.735,8,11,2017,SK,Banskobystrický kraj,so2,µg/m³
24.09091,22,18.423,43.866,5,10,2017,BA,Sarajevo,no2,µg/m³
20.123333,21,-70.75017,-33.437813,4,10,2017,CL,Pudahuel,o3,µg/m³
52.193546,62,16.013552,50.379078,5,10,2017,CZ,Královéhradecký,o3,µg/m³
18.265156,88,20.83508,48.265697,5,10,2017,HU,Borsod-Abaúj-Zemplén,pm10,µg/m³
18.934671,23,18.936113,46.976112,5,10,2017,HU,Fejér,pm10,µg/m³
22.327364,201,-8.959167,38.555763,4,10,2017,PT,Setúbal,pm10,µg/m³
0.2689394,66,120.82587,24.548393,5,10,2017,TW,苗栗縣,co,ppm
-914.1583,24,4.48753,51.8936,3,10,2017,NL,Rotterdam Zuid,no2,µg/m³
-910.80414,24,4.12194,51.9778,3,10,2017,NL,Hoek v. Holland,o3,µg/m³
19.375061,24,4.46134,51.9271,3,10,2017,NL,Rotterdam Noord ,pm10,µg/m³
0.34789473,38,120.29644,23.510073,10,11,2017,TW,嘉義縣,co,ppm
23.4375,24,4.12194,51.9778,4,12,2015,NL,Hoek v. Holland,no2,µg/m³
-27.866459,48,5.124345,52.0845,4,12,2015,NL,Utrecht,o3,µg/m³
29.67826,23,20.788889,51.835182,4,12,2015,PL,Belsk,o3,µg/m³
8.287066,15,-70.62931,-31.889278,3,12,2015,CL,Salamanca,pm10,µg/m³
352.975,24,-72.59879,-38.764767,4,12,2015,CL,Padre las Casas,co,µg/m³
17.78125,16,-104.8286,38.848,5,9,2017,US,Colorado Springs,pm25,µg/m³
7,21,-3.182186,55.945587,10,10,2017,GB,Edinburgh,no2,µg/m³
30.9,40,-2.2385495,53.426414,10,10,2017,GB,Manchester,o3,µg/m³
2.75,20,0.18125,50.7937,10,10,2017,GB,Lullington Heath,so2,µg/m³
2.22125,80,153.09299,-27.48375,12,11,2017,AU,South East Queensland,pm25,µg/m³
542.1635,20,-70.65116,-33.422302,4,9,2017,CL,Independencia,co,µg/m³
-31.93375,24,5.85307,51.5405,13,12,2015,NL,Vredepeel,no2,µg/m³
146.61821,28,-71.53268,-32.79323,12,12,2015,CL,Quintero,co,µg/m³
0.011090909,22,99.01115,18.564722,13,12,2015,TH,Lamphun,no2,ppm
0.002521739,23,100.568535,14.349367,13,12,2015,TH,Ayutthaya,so2,ppm
4.064,21,-70.99693,-32.833637,13,12,2015,CL,Llayllay,so2,µg/m³
19.228125,24,-70.989685,-34.57976,13,12,2015,CL,San Fernando,pm10,µg/m³
0.02828707,843,-95.29315,29.722301,13,12,2015,US,Houston,o3,ppm
9.5,10,-95.12851,29.670025,13,12,2015,US,Houston,pm25,µg/m³
-736.67084,24,105.819,21.02177,14,12,2015,VN,Hanoi,pm25,µg/m³
8.06E-04,4808,35.179455,32.90063,22,10,2017,IL,צפון,so2,ppm
1.2380953,21,-45.575806,-23.03235,5,10,2017,BR,Taubaté,so2,µg/m³
5.3913045,23,11.286569,50.837673,5,10,2017,DE,Thüringen,pm25,µg/m³
31.362068,174,-1.7276396,42.6734,5,10,2017,ES,Navarra,o3,µg/m³
16.682066,92,5.423679,43.38885,5,10,2017,FR,Bouches-du-Rhône,pm25,µg/m³
28.0971,24,4.60184,52.463,16,11,2015,NL,IJmuiden,pm10,µg/m³
28.5,22,100.29,7.0100007,16,11,2015,TH,Songkhla,pm10,µg/m³
16.125917,24,-70.6608,-33.46414,16,11,2015,CL,Santiago,no2,µg/m³
0.47619048,21,-46.40995,-23.440117,26,10,2017,BR,Guarulhos,co,ppm
5.0897436,39,-68.78593,-22.400667,25,10,2017,CL,Calama,so2,µg/m³
2.133581,17,11.073983,59.95548,19,9,2017,NO,Lillestrøm,pm25,µg/m³
5.00E-04,6,-75.611,39.595,26,10,2017,US,NEW CASTLE,so2,ppm
11,6,-77.013176,38.92185,26,10,2017,US,WASHINGTON,pm10,µg/m³
7.6928573,42,-92.999985,40.518085,25,10,2017,US,WASHINGTON,pm25,µg/m³
0.63,6,-87.5772,38.0133,26,10,2017,US,Evansville,bc,µg/m³
0.001533333,15,-82.92426,42.495266,26,10,2017,US,Detroit-Warren-Livonia,so2,ppm
6.2,6,-75.067825,40.924606,26,10,2017,US,WARREN,pm25,µg/m³
2.08,35,-71.42466,41.712547,26,10,2017,US,Providence-New Bedford-Fall River,pm25,µg/m³
0.31666666,6,-77.40027,37.55652,26,10,2017,US,Richmond,co,ppm
17.563684,19,-71.67826,-35.435143,4,10,2017,CL,Talca,no2,µg/m³
20.200588,17,-73.228516,-39.831318,4,10,2017,CL,Valdivia,pm25,µg/m³
1.6666666,21,-3.205782,55.86228,4,10,2017,GB,Bush Estate,no2,µg/m³
21.714285,21,0.54797,51.374264,4,10,2017,GB,Chatham,pm10,µg/m³
50.35,20,-1.829999,52.437164,4,10,2017,GB,Birmingham,o3,µg/m³
17.28175,80,,,4,10,2017,IN,Ludhiana,o3,µg/m³
50.2,42,,,4,10,2017,IN,Moradabad,o3,µg/m³
4.5,20,150.91417,-31.110556,10,11,2017,AU,North-west Slopes,pm25,µg/m³
1.6137,20,-71.21965,-28.469997,1,2,2016,CL,Huasco,pm25,µg/m³
49.945835,48,-73.1174,-36.78593,1,2,2016,CL,Hualpén,pm10,µg/m³
0.027428571,35,100.54028,13.670374,3,2,2016,TH,Samut Prakan,no2,ppm
-29.02896,48,5.978675,50.89415,2,2,2016,NL,Heerlen,no2,µg/m³
9.484255,24,4.51082,52.2966,2,2,2016,NL,De Zilk,pm25,µg/m³
85.844826,522,106.947205,47.911934,2,2,2016,MN,Ulaanbaatar,no2,µg/m³
-0.15916666,24,4.51082,52.2966,2,2,2016,NL,De Zilk,so2,µg/m³
12.413043,23,22.272778,52.172035,2,2,2016,PL,Siedlce,pm25,µg/m³
6.130435,23,22.272778,52.172035,2,2,2016,PL,Siedlce,so2,µg/m³
11.9047,20,-70.29055,-18.483427,2,2,2016,CL,Arica,pm25,µg/m³
34.083332,24,-69.31814,-22.888723,1,2,2016,CL,Sierra Gorda,pm10,µg/m³
0.0065,2,-121.84048,39.76161,5,11,2017,US,BUTTE,no2,ppm
0,4,-73.1953,41.1714,6,11,2017,US,Bridgeport-Stamford-Norwalk,so2,ppm
0.014875,8,-86.12279,39.799366,6,11,2017,US,Indianapolis,o3,ppm
20,4,-101.702995,39.3428,6,11,2017,US,SHERMAN,pm10,µg/m³
0.22,3,-76.84619,39.143196,6,11,2017,US,HOWARD,co,ppm
5.75,4,-83.6694,43.0289,6,11,2017,US,Flint,pm25,µg/m³
13.885715,7,-78.884,35.93333,6,11,2017,US,Durham,pm25,µg/m³
1.25E-04,8,-84.59745,39.171898,6,11,2017,US,Cincinnati-Middletown,so2,ppm
8.55,4,-122.58714,48.492996,5,11,2017,US,SKAGIT,pm25,µg/m³
6,3,-104.778336,41.18222,6,11,2017,US,Cheyenne,pm10,µg/m³
6.285714,7,18.977,43.661,12,11,2017,BA,Goražde,so2,µg/m³
5.4761906,21,34.776966,41.461216,12,11,2017,TR,Sinop,so2,µg/m³
0.001571429,21,119.949875,26.16047,12,11,2017,TW,連江縣,so2,ppm
25,2,4.2251945,50.76814,29,9,2017,BE,Vlaams-Brabant,o3,µg/m³
25.418182,33,-1.0797538,46.658634,29,9,2017,FR,Vendée,pm10,µg/m³
9.769231,13,1.049031,51.77798,3,10,2017,GB,St Osyth,no2,µg/m³
2.2857144,14,-149.06894,61.566532,2,10,2017,US,MATANUSKA-SUSITNA,pm10,µg/m³
51.210526,19,-111.93208,33.012394,2,10,2017,US,PINAL,pm10,µg/m³
0.03657143,7,-122.295,38.3108,2,10,2017,US,Napa,o3,ppm
40.94643,56,-117.17852,34.214287,2,10,2017,US,Riverside-San Bernardino-Ontario,pm10,µg/m³
0.4,7,-117.525795,34.068115,2,10,2017,US,SAN BERNARDINO,co,ppm
10.2,2,-87.4633,37.8714,2,10,2017,US,Evansville,pm25,µg/m³
0.02125,16,-90.28631,30.211975,2,10,2017,US,New Orleans-Metairie-Kenner,o3,ppm
7.325,4,-90.8114,30.315,2,10,2017,US,Baton Rouge,pm25,µg/m³
0.13428572,7,-76.1408,38.5876,2,10,2017,US,DORCHESTER,co,ppm
0.023666667,6,-105.37028,45.440296,2,10,2017,US,POWDER RIVER,o3,ppm
0.028,7,-104.2622,32.38,2,10,2017,US,Carlsbad-Artesia,o3,ppm
12.428572,7,-79.8011,36.1092,2,10,2017,US,Greensboro-High Point,pm10,µg/m³
0.0038,20,-81.43733,41.633038,2,10,2017,US,Cleveland-Elyria-Mentor,so2,ppm
0.5,7,-81.372856,40.800797,2,10,2017,US,Canton-Massillon,co,ppm
6.357143,7,-80.0372,42.1428,2,10,2017,US,Erie,pm25,µg/m³
8.1,8,-75.42108,40.613926,2,10,2017,US,Allentown-Bethlehem-Easton,pm25,µg/m³
0.012333334,6,-122.5952,46.9525,2,10,2017,US,Olympia,o3,ppm
8.57E-04,7,-109.7897,41.7506,2,10,2017,US,SWEETWATER,no2,ppm
14.095238,21,-48.56746,-22.29862,26,10,2017,BR,Jaú,no2,µg/m³
39.280487,41,12.643402,50.275074,26,10,2017,CZ,Karlovarský,o3,µg/m³
13.376212,359,2.6942244,39.536278,26,10,2017,ES,Illes Balears,no2,µg/m³
15.636364,22,-1.10667,40.33639,27,10,2017,ES,Teruel,no2,µg/m³
47.20299,127,1.0638928,41.956894,27,10,2017,ES,Lleida,o3,µg/m³
8.479167,24,5.7117,43.9335,26,10,2017,FR,Alpes-de-Haute-Provence,pm25,µg/m³
16.456667,48,6.1950164,48.183197,26,10,2017,FR,Vosges,pm10,µg/m³
37.729443,72,,,27,10,2017,IN,Durgapur,pm10,µg/m³
3.347826,23,35.83796,40.657223,27,10,2017,TR,Amasya,o3,µg/m³
10.434783,46,32.499176,37.901783,27,10,2017,TR,Konya,so2,µg/m³
0.002026087,23,119.949875,26.16047,27,10,2017,TW,連江縣,so2,ppm
341.13214,42,-71.5074,-32.793575,27,9,2017,CL,Quintero,co,µg/m³
18.869566,23,1.301976,52.614193,9,10,2017,GB,Norwich,no2,µg/m³
17.90909,22,-1.875024,52.47609,9,10,2017,GB,West Midlands,o3,µg/m³
0.030732457,228,-111.87115,33.46946,8,10,2017,US,Phoenix-Mesa-Scottsdale,o3,ppm
0.04,9,-118.7885,35.239193,8,10,2017,US,KERN,o3,ppm
0.12592593,27,-104.980446,39.789898,8,10,2017,US,Denver-Aurora,co,ppm
0.026666667,9,-95.47594,37.67696,8,10,2017,US,NEOSHO,o3,ppm
0.001,13,-71.7947,42.2639,9,10,2017,US,Worcester,so2,ppm
2.6846154,13,-74.0097,41.4994,9,10,2017,US,Poughkeepsie-Newburgh-Middletown,pm25,µg/m³
0.01823077,13,-82.96338,35.50716,9,10,2017,US,HAYWOOD,o3,ppm
1.12,10,-102.5264,47.3203,8,10,2017,US,DUNN,pm25,µg/m³
0.035666667,9,-97.67973,31.088001,8,10,2017,US,Killeen-Temple-Fort Hood,o3,ppm
4.075,8,-79.8842,37.2856,9,10,2017,US,Roanoke,pm25,µg/m³
-10.102083,24,4.45053,51.7866,2,11,2015,NL,Westmaas,no2,µg/m³
-996,24,5.85307,51.5405,2,11,2015,NL,Vredepeel,pm10,µg/m³
12.843478,23,21.139166,51.399097,2,11,2015,PL,Radom,so2,µg/m³
35.452175,23,,,2,11,2015,PL,Żyrardów,o3,µg/m³
43.895523,67,100.94321,13.216349,2,11,2015,TH,Chon Buri,pm10,µg/m³
43.941364,22,-71.23397,-34.974926,1,11,2015,CL,Curicó,pm10,µg/m³
56.52174,23,-3.034178,52.50385,30,9,2017,GB,Aston Hill,o3,µg/m³
25.916666,36,-1.9161673,52.558228,30,9,2017,GB,West Midlands,no2,µg/m³
0.0352,25,-94.17387,35.753544,29,9,2017,US,POLK,o3,ppm
24.615385,26,-120.23214,34.66664,29,9,2017,US,Santa Barbara-Santa Maria,pm10,µg/m³
0.02074074,27,-105.255264,40.482246,29,9,2017,US,Fort Collins-Loveland,o3,ppm
0.03511111,9,-88.708374,39.273758,29,9,2017,US,Decatur,o3,ppm
-5.56E-05,18,-91.06665,41.413498,29,9,2017,US,Muscatine,so2,ppm
0.02875,8,-75.7972,39.3052,29,9,2017,US,KENT,o3,ppm
9.233334,9,-89.2875,31.322779,29,9,2017,US,Hattiesburg,pm25,µg/m³
0.005857143,7,-80.7464,39.9679,29,9,2017,US,BELMONT,no2,ppm
0.0484,5,-80.1989,34.6153,29,9,2017,US,CHESTERFIELD,o3,ppm
0.02151852,54,-87.9487,43.186916,29,9,2017,US,Milwaukee-Waukesha-West Allis,o3,ppm
100,1,12.891731,41.45113,20,9,2017,IT,Latina,co,µg/m³
44.954567,23,-70.71944,-33.492847,5,2,2016,CL,Cerrillos,o3,µg/m³
19.156666,24,-70.73215,-33.43309,5,2,2016,CL,Cerro Navia,no2,µg/m³
1.1083721,43,99.63963,18.266819,5,2,2016,TH,Lampang,co,ppm
-18.5,24,4.71501,52.3275,5,2,2016,NL,Hoofddorp,no2,µg/m³
10.996087,24,6.40293,52.3883,5,2,2016,NL,Hellendoorn,pm10,µg/m³
6.259532,23,4.77401,52.334,22,8,2017,NL,Badhoevedorp,pm25,µg/m³
0.022,9,-72.6297,41.7847,25,10,2017,US,Hartford-West Hartford-East Hartford,o3,ppm
11,15,-91.68772,41.976738,25,10,2017,US,Cedar Rapids,pm25,µg/m³
0.009111111,9,-71.05605,42.325195,25,10,2017,US,SUFFOLK,no2,ppm
4.125,8,-89.2875,31.322779,25,10,2017,US,Hattiesburg,pm25,µg/m³
5.1888885,9,-78.8094,42.8781,25,10,2017,US,Buffalo-Niagara Falls,pm25,µg/m³
0.026375,8,-76.383446,40.33733,25,10,2017,US,LEBANON,o3,ppm
11.3,7,-76.383446,40.33733,25,10,2017,US,LEBANON,pm25,µg/m³
0,8,-79.02638,39.483616,25,10,2017,US,MINERAL,so2,ppm
9.130435,23,-99.10143,19.529278,25,10,2017,MX,MEXICO STATE,pm25,µg/m³
0.0264,5,-120.7625,38.34,26,10,2017,US,AMADOR,o3,ppm
17.21579,19,-116.9892,32.838116,26,10,2017,US,San Diego-Carlsbad-San Marcos,pm25,µg/m³
9.0199995,5,-84.3483,30.4397,26,10,2017,US,Tallahassee,pm25,µg/m³
0.039,5,-114.2158,39.0053,26,10,2017,US,WHITE PINE,o3,ppm
0.0175,10,-76.19791,40.0453,26,10,2017,US,Lancaster,o3,ppm
5.92,5,-111.85194,41.842777,26,10,2017,US,CACHE,pm25,µg/m³
46.615383,13,-115.56031,32.978798,4,10,2017,US,El Centro,pm10,µg/m³
0.032444444,9,-72.980064,43.716404,4,10,2017,US,ESSEX,o3,ppm
0.009888889,9,-72.4937,42.200436,4,10,2017,US,Springfield,no2,ppm
4.7333336,3,-85.5419,42.2781,4,10,2017,US,Kalamazoo-Portage,pm25,µg/m³
0.013666666,3,-95.8467,46.8511,4,10,2017,US,BECKER,o3,ppm
0.03361905,21,-119.79809,39.49331,4,10,2017,US,Reno-Sparks,o3,ppm
0,3,-102.5264,47.3203,4,10,2017,US,DUNN,so2,ppm
0.019,15,-96.02331,36.15079,4,10,2017,US,Tulsa,o3,ppm
0.027333334,3,-108.04111,44.28,4,10,2017,US,BIG HORN,o3,ppm
8.796862,58,5.7222023,50.614815,5,11,2017,BE,Liege,pm10,µg/m³
17,12,-104.8286,38.848,8,9,2017,US,Colorado Springs,pm25,µg/m³
1.2329787,47,88.10973,22.06047,16,9,2017,IN,Haldia,pm10,µg/m³
28.363636,66,120.470314,24.03981,16,9,2017,TW,彰化縣,pm25,µg/m³
14.94067,24,4.60184,52.463,6,11,2015,NL,IJmuiden,pm25,µg/m³
12.453472,24,4.35524,51.8674,6,11,2015,NL,Hoogvliet,pm10,µg/m³
103.04348,46,100.90215,14.603312,6,11,2015,TH,Saraburi,pm10,µg/m³
27.776667,24,-70.71944,-33.492847,5,11,2015,CL,Cerrillos,no2,µg/m³
24.434782,23,-70.62931,-31.889278,6,11,2015,CL,Salamanca,pm10,µg/m³
0.006130435,23,100.1654,18.12614,7,11,2015,TH,Phrae,no2,ppm
31.708334,24,99.66315,18.27968,7,11,2015,TH,Lampang,pm10,µg/m³
32.22353,17,-73.13869,-37.0317,16,10,2017,CL,Coronel,pm10,µg/m³
17.904762,21,-4.734421,55.94408,17,10,2017,GB,Central Scotland,no2,µg/m³
-956.5993,276,4.86392,52.37704,17,10,2017,NL,Amsterdam,no2,µg/m³
-999,23,5.57349,52.9169,17,10,2017,NL,Balk,o3,µg/m³
17.407059,17,3.4559922,46.6553,22,9,2017,FR,Allier,no2,µg/m³
13.388333,24,6.93243,52.8757,20,12,2015,NL,Valthermond,no2,µg/m³
1374.1781,48,-73.116196,-36.7529,19,12,2015,CL,Talcahuano,co,µg/m³
38.64381,21,-71.23397,-34.974926,19,12,2015,CL,Curicó,pm10,µg/m³
4.7835264,19,-72.59879,-38.764767,19,12,2015,CL,Padre las Casas,pm25,µg/m³
361.27908,86,-9.151851,38.746174,27,9,2017,PT,Lisboa,co,µg/m³
15.574336,256,-5.8252497,36.46695,11,11,2017,ES,Cádiz,pm10,µg/m³
543.27344,256,-5.730618,36.43177,11,11,2017,ES,Cádiz,co,µg/m³
9.1805,40,-7.6273603,42.816387,11,11,2017,ES,Lugo,no2,µg/m³
47,69,-4.8152966,37.97776,11,11,2017,ES,Córdoba,o3,µg/m³
225.39682,63,6.0754204,49.56974,11,11,2017,LU,Luxemburg,co,µg/m³
26.273918,20,21.387,42.006,11,11,2017,MK,Karpos Municipality,no2,µg/m³
84.77586,174,77.16784,28.631512,11,2,2016,IN,Delhi,no2,µg/m³
0.004333334,45,101.0483,19.540054,10,2,2016,TH,Nan,no2,ppm
-873.0833,24,5.71475,50.8459,10,2,2016,NL,Maastricht,no2,µg/m³
4.9164968,48,6.5939198,53.232147,10,2,2016,NL,Groningen,pm25,µg/m³
666.4167,24,-70.75017,-33.437813,10,2,2016,CL,Pudahuel,co,µg/m³
112.67391,46,98.98866,18.791092,11,2,2016,TH,Chiang Mai,pm10,µg/m³
0.003434783,23,100.1654,18.12614,11,2,2016,TH,Phrae,so2,ppm
0.37857142,21,99.32072,9.136808,11,2,2016,TH,Surat Thani,co,ppm
0.0537,20,99.81487,13.532555,11,2,2016,TH,Ratchaburi,o3,ppm
14.375,24,-3.182186,55.945587,21,10,2017,GB,Edinburgh,no2,µg/m³
9.55E-04,11429,34.68668,31.697447,20,10,2017,IL,מישור החוף הדרומי,so2,ppm
5.2907844,51,,,21,10,2017,IN,Amritsar,so2,µg/m³
23.520466,43,82.97833,25.350555,9,9,2017,IN,Varanasi,no2,µg/m³
7.5175,44,6.1551604,62.471397,9,9,2017,NO,Ålesund,pm10,µg/m³
6.1863637,22,11.0891905,59.273777,9,9,2017,NO,Sarpsborg,pm10,µg/m³
7.0546513,43,10.94281,59.210247,9,9,2017,NO,Fredrikstad,pm10,µg/m³
32.636364,22,35.83796,40.657223,9,9,2017,TR,Amasya,o3,µg/m³
66.170456,176,32.821465,39.938927,9,9,2017,TR,Ankara,no2,µg/m³
16.636364,22,38.398563,40.914444,9,9,2017,TR,Giresun,no2,µg/m³
6.5776668,60,73.03791,26.292065,11,10,2017,IN,Jodhpur,so2,µg/m³
-999,23,4.60184,52.463,11,10,2017,NL,IJmuiden,no2,µg/m³
-999,69,4.89928,52.379665,11,10,2017,NL,Amsterdam,o3,µg/m³
59.090908,22,-48.983074,-21.141943,10,10,2017,BR,Catanduva,pm10,µg/m³
9.8625,24,15.660639,46.169056,10,10,2017,HR,Krapinsko-zagorska,pm25,µg/m³
19.5,260,120.35015,22.656729,11,10,2017,TW,高雄市,pm25,µg/m³
0.00316087,23,120.440834,23.462778,11,10,2017,TW,嘉義市,so2,ppm
12,35,-2.9280264,53.410217,16,10,2017,GB,North West & Merseyside,no2,µg/m³
99.824165,36,80.32517,26.470308,16,10,2017,IN,Kanpur,no2,µg/m³
0.356875,16,-80.21272,26.092651,15,10,2017,US,BROWARD,co,ppm
0.014666667,21,-81.627,30.371422,15,10,2017,US,Jacksonville,o3,ppm
2.4857142,28,-81.57024,30.283676,15,10,2017,US,Jacksonville,pm25,µg/m³
0.12142857,7,-88.3724,40.0519,15,10,2017,US,Champaign-Urbana,co,ppm
6.4,5,-73.2547,42.4478,15,10,2017,US,Pittsfield,pm25,µg/m³
1.4285715,7,-90.18977,38.65643,15,10,2017,US,ST. LOUIS (CITY),pm25,µg/m³
0.026714286,7,-104.676865,47.8679,15,10,2017,US,RICHLAND,o3,ppm
0,8,-71.458244,43.13246,15,10,2017,US,MERRIMACK,so2,ppm
0.010666667,6,-106.5847,35.1353,15,10,2017,US,Albuquerque,no2,ppm
0.113125,16,-84.45608,39.79673,15,10,2017,US,Dayton,co,ppm
3.4,7,-122.66,48.2944,15,10,2017,US,ISLAND,pm25,µg/m³
3.7,7,-122.627396,47.592674,15,10,2017,US,KITSAP,pm25,µg/m³
49.409092,44,35.346577,36.929295,17,10,2017,TR,Adana,pm10,µg/m³
18.266666,15,27.082779,38.395832,17,10,2017,TR,İzmir,no2,µg/m³
0.0322,20,120.97208,24.805618,17,10,2017,TW,新竹市,o3,ppm
0.010909091,22,101.28636,13.588554,25,2,2016,TH,Chachoengsao,no2,ppm
15.5,24,4.71501,52.3275,25,2,2016,NL,Hoofddorp,o3,µg/m³
42.43166,41,-71.50395,-32.79856,24,2,2016,CL,Quintero,pm10,µg/m³
5.516667,24,4.6288,52.4744,25,2,2016,NL,Staalstraat,pm25,µg/m³
36.409092,22,100.529076,13.763936,26,2,2016,TH,Loei,pm10,µg/m³
29.993124,24,-70.6608,-33.46414,24,2,2016,CL,Santiago,no2,µg/m³
121.78261,23,99.01115,18.564722,18,2,2016,TH,Lamphun,pm10,µg/m³
0.007947369,19,99.81487,13.532555,17,2,2016,TH,Ratchaburi,no2,ppm
16.135565,72,4.4573164,51.9266,17,2,2016,NL,Rotterdam,pm25,µg/m³
0.03802174,46,100.90215,14.603312,18,2,2016,TH,Saraburi,o3,ppm
14.142858,21,-70.65116,-33.422302,16,2,2016,CL,Independencia,pm25,µg/m³
6.6491365,22,-73.228516,-39.831318,16,2,2016,CL,Valdivia,pm25,µg/m³
9.272727,11,-47.414314,-22.563604,15,10,2017,BR,Limeira,no2,µg/m³
10.357142,42,-1.182403,46.162083,16,10,2017,FR,Charente-Maritime,pm25,µg/m³
33.033405,47,3.4212527,46.65593,16,10,2017,FR,Allier,no2,µg/m³
42.994087,115,4.662611,46.680668,16,10,2017,FR,Saône-et-Loire,o3,µg/m³
69.39605,19,21.387,42.006,16,10,2017,MK,Karpos Municipality,pm10,µg/m³
17.714548,19,21.423,41.992,16,10,2017,MK,Centar Municipality,o3,µg/m³
27.941177,17,99.32072,9.136808,16,10,2017,TH,Surat Thani,pm10,µg/m³
71.652176,23,100.568535,14.349367,14,9,2017,TH,Ayutthaya,pm10,µg/m³
1.3346153,26,99.82438,19.909359,14,9,2017,TH,Chiang Rai,co,ppm
6.285714,42,27.976784,40.418835,14,9,2017,TR,Balıkesir,so2,µg/m³
1.0909091,22,38.398563,40.914444,14,9,2017,TR,Giresun,pm10,µg/m³
1655.909,22,38.398563,40.914444,14,9,2017,TR,Giresun,co,µg/m³
429.04544,22,27.612913,39.181416,14,9,2017,TR,Manisa,co,µg/m³
28.09091,44,36.31256,41.308212,14,9,2017,TR,Samsun,o3,µg/m³
5.75,8,13.407563,41.64496,3,9,2017,IT,Frosinone,pm10,µg/m³
41.849083,46,17.12114,48.145844,26,9,2017,SK,Bratislavský kraj,o3,µg/m³
18.65,80,-2.9163542,43.272854,4,10,2017,ES,Bizkaia,pm10,µg/m³
7.8414583,48,1.6486111,45.209373,4,10,2017,FR,Corrèze,pm10,µg/m³
24.789474,19,17.8,44.202,16,9,2017,BA,Zenica,pm10,µg/m³
3.3627906,43,,,16,9,2017,IN,Thiruvananthapuram,so2,µg/m³
0.002,22,99.01115,18.564722,16,9,2017,TH,Lamphun,so2,ppm
22.752857,42,-72.60331,-38.739403,25,10,2017,CL,Temuco,pm10,µg/m³
25.297045,44,-72.05605,-45.579544,25,10,2017,CL,Coyhaique,pm10,µg/m³
1.7354167,18,8.463334,47.067387,6,11,2017,CH,Schwyz,pm10,µg/m³
23.353548,62,77.026306,28.450129,7,11,2017,IN,Gurgaon,no2,µg/m³
27.204546,22,105.81881,21.021938,9,10,2017,VN,Hanoi,pm25,µg/m³
15.404762,63,-0.029026194,42.168396,26,10,2017,ES,Huesca,no2,µg/m³
39.34834,22,27.73333,64.22444,26,10,2017,FI,Kainuu,pm10,µg/m³
11.45087,23,5.5568075,46.671326,26,10,2017,FR,Jura,o3,µg/m³
47.214447,84,19.111536,47.493195,26,10,2017,HU,Budapest,no2,µg/m³
44.11628,43,6.015348,49.84035,25,10,2017,LU,Diekirch,o3,µg/m³
37.333332,42,29.290365,40.13327,26,10,2017,TR,Bursa,pm10,µg/m³
0.20190476,21,118.312256,24.432133,26,10,2017,TW,金門縣,co,ppm
37,21,120.97208,24.805618,26,10,2017,TW,新竹市,pm10,µg/m³
11.894737,19,-72.95853,-36.601715,2,10,2017,CL,Tomé,pm10,µg/m³
18.6,10,-8.466111,39.3525,23,9,2017,PT,Santarém,pm10,µg/m³
6.3304167,24,6.27681,53.3304,21,10,2017,NL,Kollumerwaard,no2,µg/m³
-198.63249,24,6.1082,51.4541,21,10,2017,NL,Horst a/d Maas,pm10,µg/m³
12.453913,23,10.21187,59.73325,21,10,2017,NO,Drammen,pm10,µg/m³
176.465,12,-70.6608,-33.46414,5,10,2015,CL,Santiago,co,µg/m³
20.695652,23,-74.09486,4.637735,2,10,2017,CO,Bogota,pm25,µg/m³
122.15909,22,,,3,10,2017,IN,Mandi Gobindgarh,pm25,µg/m³
0.03914286,7,-79.8842,37.2856,28,10,2017,US,Roanoke,o3,ppm
8.012083,24,-70.29055,-18.483427,22,10,2017,CL,Arica,pm25,µg/m³
18.3125,32,-1.4556953,53.23948,14,8,2017,GB,Chesterfield,no2,µg/m³
33.6,40,-2.2385495,53.426414,14,8,2017,GB,Manchester,o3,µg/m³
29,20,-3.532465,50.725082,14,8,2017,GB,Exeter,no2,µg/m³
6.722381,21,-73.05206,-36.784653,10,11,2017,CL,Concepción,so2,µg/m³
34.31818,22,-1.127311,52.619823,12,11,2017,GB,Leicester,o3,µg/m³
12.095238,21,-2.742134,53.451824,12,11,2017,GB,North West & Merseyside,pm10,µg/m³
41.38095,21,-3.532465,50.725082,12,11,2017,GB,Exeter,o3,µg/m³
0,24,151.3507,-23.9408,21,10,2017,AU,Gladstone,co,ppm
16.76261,23,-2.763889,47.648888,26,10,2017,FR,Morbihan,pm25,µg/m³
0.008869565,23,-68.851166,33.415337,23,9,2017,CA,SASKATCHEWAN,o3,ppm
0.029793104,29,-81.76803,30.341383,23,9,2017,US,Jacksonville,o3,ppm
10,7,-116.23687,47.536713,23,9,2017,US,SHOSHONE,pm10,µg/m³
0.015285715,7,-104.676865,47.8679,23,9,2017,US,RICHLAND,o3,ppm
0,8,-71.458244,43.13246,23,9,2017,US,MERRIMACK,so2,ppm
0.006428571,7,-106.5847,35.1353,23,9,2017,US,Albuquerque,no2,ppm
0.051857144,7,-83.7956,35.2578,23,9,2017,US,GRAHAM,o3,ppm
0.022428572,7,-78.3889,40.515,23,9,2017,US,Altoona,o3,ppm
2.5714285,7,-122.66,48.2944,23,9,2017,US,ISLAND,pm25,µg/m³
9.142858,14,-120.42244,46.487576,23,9,2017,US,Yakima,pm25,µg/m³
10.70375,24,6.93243,52.8757,8,1,2016,NL,Valthermond,no2,µg/m³
258.84348,23,-72.59879,-38.764767,7,1,2016,CL,Padre las Casas,co,µg/m³
19.919666,24,-72.049965,-45.579044,8,1,2016,CL,Coyhaique,o3,µg/m³
0.001753247,77,100.65145,13.619894,9,1,2016,TH,Samut Prakan,so2,ppm
0.021482144,56,101.17451,12.818273,9,1,2016,TH,Rayong,o3,ppm
0.019606061,33,100.96453,13.2874775,9,1,2016,TH,Chon Buri,o3,ppm
452.7127,23,19.154999,48.735,27,9,2017,SK,Banskobystrický kraj,co,µg/m³
12.868333,24,-70.19325,-22.087,15,1,2016,CL,Tocopilla,o3,µg/m³
54,1,102.50621,13.689029,16,1,2016,TH,Sa Kaeo,pm10,µg/m³
4.8995,24,-73.11872,-40.58448,16,1,2016,CL,Osorno,pm25,µg/m³
7.2257586,24,-73.11371,-36.769802,16,1,2016,CL,Talcahuano,o3,µg/m³
52.468086,47,100.902725,14.601614,17,1,2016,TH,Saraburi,pm10,µg/m³
0.343,20,100.1654,18.12614,17,1,2016,TH,Phrae,co,ppm
1.6114286,21,1.8425,50.950832,28,10,2017,FR,Pas-de-Calais,so2,µg/m³
1.6666666,21,-1.546472,53.80378,29,8,2017,GB,Leeds,so2,µg/m³
0.034787264,7986,35.185654,31.79968,4,11,2017,IL,ירושלים,o3,ppm
0.008492848,10193,34.802307,32.067604,4,11,2017,IL,גוש דן,no2,ppm
0.25193954,7476,35.045666,32.793583,4,11,2017,IL,חיפה וקריות,co,ppm
3.23E-04,207,-95.21047,29.58125,27,2,2016,US,Houston,so2,ppm
0.012531915,47,101.197014,12.836712,27,2,2016,TH,Rayong,no2,ppm
-12.942754,276,4.86392,52.37704,27,2,2016,NL,Amsterdam,no2,µg/m³
25.852272,88,99.66304,18.311089,28,2,2016,TH,Lampang,pm10,µg/m³
17.468262,23,6.60537,52.0918,27,2,2016,NL,Eibergen,no2,µg/m³
-29.91739,23,5.57349,52.9169,27,2,2016,NL,Balk,no2,µg/m³
0.45173913,23,99.82336,19.909243,28,2,2016,TH,Chiang Rai,co,ppm
467.88696,23,-71.67826,-35.435143,27,2,2016,CL,Talca,co,µg/m³
29.210556,18,-72.62079,-38.7487,27,2,2016,CL,Temuco,pm10,µg/m³
20.540945,36,-72.055855,-45.57953,27,2,2016,CL,Coyhaique,pm10,µg/m³
248.05,18,-72.62079,-38.7487,27,2,2016,CL,Temuco,co,µg/m³
50.333332,3,-2.615358,53.38928,27,2,2016,GB,Warrington,no2,µg/m³
40.333332,3,-2.472056,53.46008,27,2,2016,GB,Glazebury,o3,µg/m³
28.666666,3,-5.928833,54.59965,27,2,2016,GB,Belfast,so2,µg/m³
49.333332,3,-1.560228,52.411564,27,2,2016,GB,Coventry,o3,µg/m³
26.31,24,5.85778,51.8414,28,2,2016,NL,Nijmegen,pm10,µg/m³
0.03125,8,-88.52765,37.082478,25,10,2017,US,Paducah,o3,ppm
-466.94894,48,5.978675,50.89415,9,12,2015,NL,Heerlen,no2,µg/m³
9.056521,23,19.688612,52.560833,9,12,2015,PL,Płock,o3,µg/m³
4.4806666,24,-71.67826,-35.435143,8,12,2015,CL,Talca,no2,µg/m³
0.009,24,101.0371,19.508642,9,12,2015,TH,Nan,o3,ppm
16.471176,17,-71.61417,-33.049744,9,12,2015,CL,Valparaíso,pm25,µg/m³
1.0004348,23,100.87514,14.683085,10,12,2015,TH,Saraburi,co,ppm
0.030583333,12,-107.74942,37.119682,24,9,2017,US,Durango,o3,ppm
7.5242424,33,-95.38215,40.356194,24,9,2017,US,WASHINGTON,pm25,µg/m³
10.971429,7,-89.2875,31.322779,24,9,2017,US,Hattiesburg,pm25,µg/m³
29.714285,7,-90.18977,38.65643,24,9,2017,US,ST. LOUIS (CITY),pm10,µg/m³
4.571429,7,-104.676865,47.8679,24,9,2017,US,RICHLAND,pm10,µg/m³
0.003,12,-106.63335,31.79195,24,9,2017,US,Las Cruces,no2,ppm
23.095238,21,-70.75017,-33.437813,3,10,2017,CL,Pudahuel,pm25,µg/m³
2914.4153,40,-72.283165,-37.04477,12,11,2017,CL,Cabrero,co,µg/m³
4.4814816,54,16.024265,50.37051,28,10,2017,CZ,Královéhradecký,pm10,µg/m³
58,17,18.269756,49.856262,28,10,2017,CZ,Moravskoslezský,co,µg/m³
199.061,17,15.846372,50.195374,28,10,2017,CZ,Královéhradecký,co,µg/m³
3.6333334,21,150.74583,-33.618332,17,8,2017,AU,Sydney North-west,pm25,µg/m³
0.009058824,17,101.28636,13.588554,17,8,2017,TH,Chachoengsao,o3,ppm
2.48485,22,-1.10667,40.33639,5,11,2017,ES,Teruel,no2,µg/m³
58.824722,72,-0.17224666,49.163704,5,11,2017,FR,Calvados,o3,µg/m³
48,9671,,,22,12,2015,BR,São Paulo,o3,µg/m³
37.389484,72,-70.19347,-22.081291,21,12,2015,CL,Tocopilla,pm10,µg/m³
406.46667,24,-70.19325,-22.087,21,12,2015,CL,Tocopilla,co,µg/m³
-534.08813,24,4.60199,52.494,22,12,2015,NL,Wijk aan Zee,pm25,µg/m³
280.0435,23,20.788889,51.835182,22,12,2015,PL,Belsk,co,µg/m³
3.883077,39,-72.59663,-38.7373,21,12,2015,CL,Temuco,pm25,µg/m³
23.600958,24,-70.6608,-33.46414,22,12,2015,CL,Santiago,no2,µg/m³
0.007761905,21,99.01115,18.564722,23,12,2015,TH,Lamphun,no2,ppm
29.860834,24,5.88175,50.9023,30,9,2017,NL,Wijnandsrade,o3,µg/m³
16.519203,24,4.77077,52.28,30,9,2017,NL,Oude Meer,pm10,µg/m³
117.93188,16,-73.228516,-39.831318,4,9,2017,CL,Valdivia,pm10,µg/m³
0.094375,32,-82.672585,27.863937,4,9,2017,US,PINELLAS,co,ppm
16.40909,22,-48.983074,-21.141943,2,10,2017,BR,Catanduva,pm10,µg/m³
861.0829,24,-72.47721,-36.743904,2,10,2017,CL,Quillón,co,µg/m³
7.4397593,166,13.822919,50.60832,3,10,2017,CZ,Ústecký,pm25,µg/m³
9.264444,45,15.339227,49.48943,3,10,2017,CZ,Vysočina,no2,µg/m³
29.259583,24,21.71474,42.13556,3,10,2017,MK,Kumanovo Municipality,no2,µg/m³
6.246354,24,4.64053,52.4893,10,1,2016,NL,Beverwijk,pm25,µg/m³
6.535232,24,5.82223,50.9844,10,1,2016,NL,Geleen,pm10,µg/m³
-0.31208333,24,6.27681,53.3304,10,1,2016,NL,Kollumerwaard,so2,µg/m³
11.625,24,-70.74829,-33.365776,9,1,2016,CL,Quilicura,pm25,µg/m³
3.2977643,14,-70.953064,-33.67375,9,1,2016,CL,Talagante,no2,µg/m³
25.118917,24,-71.23397,-34.974926,10,1,2016,CL,Curicó,pm10,µg/m³
72.125,24,100.92917,14.523537,11,1,2016,TH,Saraburi,pm10,µg/m³
17.604273,213,11.703547,51.832138,25,9,2017,DE,Sachsen-Anhalt,no2,µg/m³
47.33121,157,100.55795,13.734777,30,9,2017,TH,Bangkok,pm10,µg/m³
40.81524,21,-70.989685,-34.57976,24,9,2017,CL,San Fernando,o3,µg/m³
0.031833332,18,-72.549065,41.770733,24,9,2017,US,Hartford-West Hartford-East Hartford,o3,ppm
0.023857143,7,-77.88476,40.79846,24,9,2017,US,State College,o3,ppm
15.533334,6,-76.383446,40.33733,24,9,2017,US,LEBANON,pm25,µg/m³
9.466667,3,-83.2375,34.805,24,9,2017,US,Seneca,pm25,µg/m³
5.513889,72,14.563041,50.2081,11,11,2017,CZ,Středočeský,pm25,µg/m³
866.6667,21,2.65583,39.57008,11,11,2017,ES,Illes Balears,co,µg/m³
10.030952,42,25.726189,62.266518,11,11,2017,FI,Central Finland,no2,µg/m³
52.454544,22,-46.8971,-23.192003,9,10,2017,BR,Jundiaí,o3,µg/m³
266.3713,23,21.2675,48.993332,5,10,2017,SK,Prešovský kraj,co,µg/m³
25.2675,24,-71.48337,-32.80098,15,8,2017,CL,Quintero,pm10,µg/m³
22.541666,24,-70.953064,-33.67375,14,8,2017,CL,Talagante,pm25,µg/m³
10.695652,23,-2.680353,53.76559,15,8,2017,GB,Preston,no2,µg/m³
50.52174,23,-3.196527,55.65747,15,8,2017,GB,Peebles,o3,µg/m³
20.347826,46,-1.429631,50.9142,15,8,2017,GB,Southampton,pm10,µg/m³
33.333332,36,-111.89645,32.97696,14,8,2017,US,PINAL,pm10,µg/m³
5.909091,22,-94.6933,43.1233,14,8,2017,US,PALO ALTO,pm25,µg/m³
11.9,20,-101.702995,39.3428,14,8,2017,US,SHERMAN,pm10,µg/m³
13.37,10,-87.4633,37.8714,14,8,2017,US,Evansville,pm25,µg/m³
7.003226,31,-90.231895,30.227396,14,8,2017,US,New Orleans-Metairie-Kenner,pm25,µg/m³
10.181818,22,-105.37028,45.440296,14,8,2017,US,POWDER RIVER,pm25,µg/m³
0.01878,50,-78.91032,35.9846,14,8,2017,US,Durham,o3,ppm
-8.64E-04,22,-79.2887,35.4325,14,8,2017,US,LEE,so2,ppm
0.001442857,70,-81.452225,41.62392,14,8,2017,US,Cleveland-Elyria-Mentor,so2,ppm
0.40869567,23,-81.372856,40.800797,14,8,2017,US,Canton-Massillon,co,ppm
155.24083,36,82.97833,25.350555,8,11,2017,IN,Varanasi,no2,µg/m³
31.300604,53,5.681922,50.61842,8,11,2017,BE,Liege,pm10,µg/m³
23.8465,40,-3.4930775,38.030365,8,11,2017,ES,Jaén,pm10,µg/m³
0.8372222,36,-5.84946,41.01507,8,11,2017,ES,Salamanca,so2,µg/m³
14.660714,28,-7.642743,42.206806,8,11,2017,ES,Ourense,no2,µg/m³
25.263407,12,20.153053,46.266613,8,11,2017,HU,Csongrád,no2,µg/m³
91.95507,69,,,8,11,2017,IN,Jaipur,pm25,µg/m³
36.170715,14,3.74948,51.2945,8,11,2017,NL,Philippine,no2,µg/m³
0.73714286,14,5.14845,51.5184,8,11,2017,NL,Biest Houtakker,o3,µg/m³
33.824203,28,4.8029804,51.598297,8,11,2017,NL,Breda,pm10,µg/m³
2.7739131,23,-7.301944,40.233055,26,9,2017,PT,Castelo Branco,pm25,µg/m³
8.677083,96,27.117744,38.39913,21,10,2017,TR,İzmir,so2,µg/m³
21.470768,16,7.148326,46.13899,26,10,2017,CH,Valais,pm10,µg/m³
7.6063724,102,8.557091,47.398,26,10,2017,CH,Zürich,o3,µg/m³
127.027275,11,-123.64835,42.1617,4,9,2017,US,JOSEPHINE,pm25,µg/m³
27.863636,22,-1.826744,50.73957,17,10,2017,GB,Bournemouth,no2,µg/m³
0,10,-118.33083,37.360703,16,10,2017,US,Bishop,so2,ppm
0.01575,8,-76.84619,39.143196,16,10,2017,US,HOWARD,no2,ppm
0.027125001,8,-70.7859,41.3306,16,10,2017,US,DUKES,o3,ppm
0,8,-78.8964,35.9919,16,10,2017,US,Durham,so2,ppm
7.9,8,-78.9158,40.3097,16,10,2017,US,Johnstown,pm25,µg/m³
0.030555556,9,-111.6632,40.2535,16,10,2017,US,Provo-Orem,no2,ppm
0.08,9,-104.778336,41.18222,16,10,2017,US,Cheyenne,co,ppm
10.333333,9,-106.27767,42.8463,16,10,2017,US,Casper,pm10,µg/m³
11,2,-83.2203,37.2831,26,9,2017,US,PERRY,pm25,µg/m³
34.38889,18,5.123573,50.723713,8,11,2017,BE,Limburg,pm25,µg/m³
45.90725,69,4.386646,51.226353,8,11,2017,BE,Antwerpen,pm10,µg/m³
27.48862,29,6.070277,44.55204,8,11,2017,FR,Hautes-Alpes,no2,µg/m³
32.07143,14,38.398563,40.914444,8,11,2017,TR,Giresun,no2,µg/m³
7.1,70,36.270885,41.330193,8,11,2017,TR,Samsun,so2,µg/m³
5.142857,14,34.776966,41.461216,8,11,2017,TR,Sinop,so2,µg/m³
54.61587,109,3.6687317,43.513817,27,10,2017,FR,Hérault,o3,µg/m³
-24.899166,24,5.39333,51.4074,13,1,2016,NL,Veldhoven,no2,µg/m³
29.6325,24,-70.6608,-33.46414,13,1,2016,CL,Santiago,no2,µg/m³
30.470589,17,100.29,7.0100007,14,1,2016,TH,Songkhla,pm10,µg/m³
19.333334,24,116.47,39.95,13,1,2016,CN,Beijing,pm25,µg/m³
159.20833,24,121.44,31.21,14,1,2016,CN,Shanghai,pm25,µg/m³
13.0002,50,8.724533,53.199657,8,11,2017,DE,Bremen,o3,µg/m³
62.4925,20,-70.99693,-32.833637,12,2,2016,CL,Llayllay,pm10,µg/m³
26.76,23,-70.66621,-33.5471,12,2,2016,CL,El Bosque,no2,µg/m³
1.206087,46,99.636604,18.267273,12,2,2016,TH,Lampang,co,ppm
38.733334,48,5.85736,51.839798,12,2,2016,NL,Nijmegen,no2,µg/m³
6.9958334,24,4.46134,51.9271,12,2,2016,NL,Rotterdam Noord ,o3,µg/m³
9.3815,24,-71.45083,-32.736065,11,2,2016,CL,Puchuncaví,no2,µg/m³
8.2439165,24,-71.61955,-35.435726,11,2,2016,CL,Maule,pm25,µg/m³
14.457894,19,-92.29514,34.728466,9,10,2017,US,Little Rock-North Little Rock,pm25,µg/m³
0.02125,12,-92.0461,32.5097,9,10,2017,US,Monroe,o3,ppm
0.5017544,114,-99.076836,19.547619,9,10,2017,MX,MEXICO STATE,co,ppm
55.38625,24,5.85694,51.8382,20,2,2016,NL,Nijmegen,o3,µg/m³
9.353337,72,4.4573164,51.9266,20,2,2016,NL,Rotterdam,pm25,µg/m³
31.242083,24,-70.52332,-33.376774,20,2,2016,CL,Las Condes,no2,µg/m³
64.794754,20,-70.66621,-33.5471,20,2,2016,CL,El Bosque,o3,µg/m³
0.031200001,20,99.32072,9.136808,21,2,2016,TH,Surat Thani,o3,ppm
15.333333,24,-70.74829,-33.365776,19,2,2016,CL,Quilicura,pm25,µg/m³
29.2,15,17.268,44.343,19,9,2017,BA,Jajce,pm10,µg/m³
24.131578,38,-46.46424,-23.447826,18,9,2017,BR,Guarulhos,no2,µg/m³
17.9,20,-46.466,-23.668549,18,9,2017,BR,Mauá,no2,µg/m³
3.1456954,151,-1.6520493,42.641582,19,9,2017,ES,Navarra,so2,µg/m³
65.10514,109,2.824609,42.22423,19,9,2017,ES,Girona,o3,µg/m³
1065.9259,27,,,19,9,2017,IN,Jaipur,co,µg/m³
133.63846,26,,,19,9,2017,IN,Jaipur,pm10,µg/m³
404.65,40,36.393463,41.25692,19,9,2017,TR,Samsun,co,µg/m³
0.022380952,42,151.66458,-32.84722,15,9,2017,AU,Lower Hunter,o3,ppm
7.2357144,42,147.16722,-35.578056,15,9,2017,AU,South-west Slopes,pm10,µg/m³
10.099159,119,,,15,9,2017,IN,Visakhapatnam,so2,µg/m³
26.538212,123,,,15,9,2017,IN,Visakhapatnam,pm25,µg/m³
207.40741,54,-6.1572733,39.73119,4,11,2017,ES,Cáceres,co,µg/m³
47.730568,53,-68.93393,-22.453352,15,9,2017,CL,Calama,pm25,µg/m³
29.871904,21,-72.932014,-36.977432,15,9,2017,CL,Hualqui,o3,µg/m³
61.486725,113,-2.143614,42.352833,16,9,2017,ES,La Rioja,o3,µg/m³
10.008333,18,5.59338,52.4232,16,9,2017,NL,Biddinghuizen,no2,µg/m³
6.634444,18,6.27681,53.3304,16,9,2017,NL,Kollumerwaard,pm10,µg/m³
12.1875,16,15.262438,46.234474,16,9,2017,SI,Celje,pm10,µg/m³
0.002588235,17,,,16,9,2017,TH,Prachin Buri,no2,ppm
7.1666665,3,4.668288,50.655437,26,10,2017,BE,Brabant wallon,no2,µg/m³
45.326984,136,,,24,9,2017,IN,Visakhapatnam,pm25,µg/m³
0.01985246,61,100.94131,13.2100725,24,9,2017,TH,Chon Buri,o3,ppm
27.391935,31,55.46805,-21.333168,23,9,2017,FR,Saint-Pierre,no2,µg/m³
12.709167,24,-72.932014,-36.977432,1,10,2017,CL,Hualqui,pm25,µg/m³
49.852062,63,75.90639,17.65992,2,10,2017,IN,Solapur,pm25,µg/m³
4.3099256,48,5.12632,52.10315,2,10,2017,NL,Utrecht,pm25,µg/m³
15.21861,24,4.64053,52.4893,2,10,2017,NL,Beverwijk West,pm10,µg/m³
-957.35,24,4.60184,52.463,2,10,2017,NL,IJmuiden,so2,µg/m³
4.9785066,22,4.8617,52.5636,14,9,2017,NL,De Rijp,pm10,µg/m³
0.001590385,52,120.847786,24.602484,14,9,2017,TW,苗栗縣,so2,ppm
11.5,6,26.586304,41.255177,11,11,2017,TR,Edirne,o3,µg/m³
8.045455,22,1.098061,51.27399,23,10,2017,GB,Canterbury,no2,µg/m³
20.466667,15,-72.9028,41.3011,22,10,2017,US,New Haven-Milford,pm10,µg/m³
25.618181,11,-80.663055,26.724167,22,10,2017,US,PALM BEACH,pm25,µg/m³
0.036,14,-86.2944,43.9533,22,10,2017,US,MASON,o3,ppm
15.785714,14,-106.48982,45.36615,22,10,2017,US,ROSEBUD,pm10,µg/m³
0.028785715,14,-102.5264,47.3203,22,10,2017,US,DUNN,o3,ppm
0.005272728,11,-82.4146,34.8439,22,10,2017,US,Greenville,no2,ppm
9.666667,9,-81.62116,38.346256,22,10,2017,US,KANAWHA,pm25,µg/m³
-70.66875,24,6.93243,52.8757,31,10,2015,NL,Valthermond,no2,µg/m³
0.004380953,42,99.69662,18.352879,1,11,2015,TH,Lampang,no2,ppm
15.173913,23,101.0483,19.540054,1,11,2015,TH,Nan,pm10,µg/m³
41.658333,24,-70.989685,-34.57976,25,10,2017,CL,San Fernando,o3,µg/m³
677.34,24,-72.62079,-38.7487,25,10,2017,CL,Temuco,co,µg/m³
10.283296,88,12.5372925,55.67623,12,11,2017,DK,Hovedstaden,no2,µg/m³
0.0281625,160,-111.87154,33.469543,5,10,2017,US,Phoenix-Mesa-Scottsdale,o3,ppm
